#BEGIN frameIdx[0], TimeInSec[1], FlagAnimationStart[2], batteryPercent[3], Roll[4], Pitch[5], Yaw[6], Vx[7], Vy[8], Vz[9], Vmag[10], Altitude[11], PosLatitude[12], PosLongitude[13], PosElevation[14]
1247, 14.786, -1, 89, 0.0176627, -0.0189717, 1.75154, 0.127054, 0.0191136, -0.0473499, 0.136931, 0.725, 0, 0, 0
1248, 59.724, -1, 89, 0.0170693, -0.0199491, 1.75132, 0.12045, 0.0149898, -0.035601, 0.126493, 0.723, 0, 0, 0
1249, 102.755, -1, 89, 0.0167203, -0.0203854, 1.7507, 0.113728, 0.011679, -0.025199, 0.11707, 0.722, 0, 0, 0
1250, 145.862, -1, 89, 0.015324, -0.0198095, 1.7509, 0.102972, 0.00672045, -0.017118, 0.104601, 0.72, 0, 0, 0
1251, 189.781, -1, 89, 0.0147655, -0.017558, 1.75004, 0.105162, 0.0030902, -0.0124651, 0.105943, 0.718, 0, 0, 0
1252, 233.053, -1, 89, 0.0137008, -0.0156032, 1.75065, 0.0987181, -0.00600337, -0.0111166, 0.0995233, 0.716, 0, 0, 0
1253, 273.718, -1, 89, 0.0125315, -0.0149051, 1.75032, 0.0900521, -0.01277, -0.00733073, 0.091248, 0.714, 0, 0, 0
1254, 318.467, -1, 89, 0.010821, -0.0137881, 1.75121, 0.0885284, -0.0151519, 0.00188803, 0.0898355, 0.714, 0, 0, 0
1255, 365.7, -1, 89, 0.00916298, -0.0118508, 1.75032, 0.0944778, -0.0163135, 0.00416548, 0.0959663, 0.713, 0, 0, 0
1256, 410.231, -1, 89, 0.00829031, -0.0119904, 1.74962, 0.0973175, -0.0139662, 0.0139692, 0.099302, 0.713, 0, 0, 0
1257, 414.554, -1, 89, 0.00829031, -0.0119904, 1.74962, 0.0973175, -0.0139662, 0.0139692, 0.099302, 0.713, 0, 0, 0
1259, 25.354, -1, 89, 0.00623083, -0.0131249, 1.74868, 0.102622, -0.013519, 0.0149136, 0.104578, 0.712, 0, 0, 0
1261, 28.033, -1, 89, 0.00490438, -0.0141197, 1.74828, 0.10951, -0.0177424, 0.0160403, 0.112092, 0.711, 0, 0, 0
1263, 25.892, -1, 89, 0.00261799, -0.01494, 1.74763, 0.101768, -0.0189321, 0.0280091, 0.107236, 0.713, 0, 0, 0
1265, 26.564, -1, 89, 0.00211185, -0.0153589, 1.7473, 0.105392, -0.0145634, 0.0195432, 0.108174, 0.71, 0, 0, 0
1267, 22.992, -1, 89, 0.00191986, -0.0155683, 1.74646, 0.101442, -0.0157777, 0.0280364, 0.106421, 0.711, 0, 0, 0
1269, 37.812, -1, 89, 0.000942478, -0.0168075, 1.74582, 0.115223, -0.0152418, 0.031743, 0.120484, 0.711, 0, 0, 0
1270, 83.761, -1, 89, 0.000820305, -0.018326, 1.74591, 0.104258, -0.0129163, 0.0283336, 0.108809, 0.71, 0, 0, 0
1271, 126.971, -1, 89, -0.000331613, -0.0195651, 1.74481, 0.105823, -0.0112267, 0.0280641, 0.110055, 0.71, 0, 0, 0
1272, 172.176, -1, 89, 0.000191986, -0.0210312, 1.74442, 0.0906977, -0.0066555, 0.0266822, 0.0947751, 0.709, 0, 0, 0
1273, 221.301, -1, 89, 0.00148353, -0.0209265, 1.74386, 0.0801348, -0.0127242, 0.0348467, 0.0883051, 0.71, 0, 0, 0
1274, 265.628, -1, 89, 0.00242601, -0.0192335, 1.74376, 0.078433, -0.0181285, 0.0378212, 0.0889428, 0.711, 0, 0, 0
1275, 311.473, -1, 89, 0.00127409, -0.016633, 1.7444, 0.07399, -0.0231891, 0.0335676, 0.0844928, 0.711, 0, 0, 0
1276, 354.44, -1, 89, -0.000610865, -0.01494, 1.74392, 0.0656233, -0.0112083, 0.0338951, 0.0747056, 0.71, 0, 0, 0
1277, 392.078, -1, 89, -0.000767945, -0.0138579, 1.74318, 0.0604479, -0.0116901, 0.0408861, 0.0739072, 0.712, 0, 0, 0
1278, 429.612, -1, 89, -0.000663225, -0.0130725, 1.74217, 0.0610262, -0.0105725, 0.0411822, 0.0743771, 0.712, 0, 0, 0
1279, 471.718, -1, 89, -0.000191986, -0.012322, 1.74222, 0.0521953, -0.00948238, 0.0391972, 0.0659597, 0.712, 0, 0, 0
1280, 514.209, -1, 89, -0.000994838, -0.0105767, 1.74266, 0.0580596, -0.0117886, 0.0504013, 0.0777829, 0.714, 0, 0, 0
1281, 559.555, -1, 89, -0.00195477, -0.00881391, 1.74187, 0.0661652, -0.0097383, 0.0557814, 0.0870875, 0.717, 0, 0, 0
1282, 608.218, -1, 89, -0.00211185, -0.0084823, 1.74172, 0.0623074, -0.00462407, 0.0378835, 0.0730668, 0.714, 0, 0, 0
1283, 653.54, -1, 89, -0.0010472, -0.0104022, 1.74123, 0.0555766, -0.00161888, 0.0303656, 0.0633518, 0.712, 0, 0, 0
1284, 691.142, -1, 89, -5.23599e-05, -0.011205, 1.74016, 0.0539792, 0.000317841, 0.0365883, 0.0652117, 0.713, 0, 0, 0
1285, 716.106, -1, 89, 0.000436332, -0.0117635, 1.74016, 0.0487827, -0.00122145, 0.04488, 0.0662983, 0.715, 0, 0, 0
1286, 751.389, -1, 89, 0.000558505, -0.0117984, 1.73976, 0.0441739, -0.00318805, 0.0421794, 0.0611605, 0.714, 0, 0, 0
1287, 778.999, -1, 89, 0.000942478, -0.0117112, 1.73976, 0.0432904, -0.00246614, 0.0293898, 0.0523823, 0.712, 0, 0, 0
1288, 811.21, -1, 89, 0.0010472, -0.0118508, 1.73952, 0.0386951, -0.00370055, 0.0387839, 0.0549108, 0.713, 0, 0, 0
1289, 845.237, -1, 89, 0.00162316, -0.0119381, 1.73933, 0.0390872, -0.00295171, 0.0354976, 0.0528829, 0.712, 0, 0, 0
1290, 872.612, -1, 89, 0.00326377, -0.0113446, 1.73934, 0.0306071, 0.000215042, 0.0451549, 0.054551, 0.714, 0, 0, 0
1291, 900.034, -1, 89, 0.00394444, -0.01028, 1.73915, 0.0318426, -0.00132906, 0.0523391, 0.0612788, 0.716, 0, 0, 0
1292, 933.946, -1, 89, 0.00368264, -0.00891863, 1.73868, 0.0287845, -0.00233995, 0.0427245, 0.0515694, 0.714, 0, 0, 0
1293, 964.978, -1, 89, 0.00389208, -0.00830777, 1.73851, 0.0287018, -0.00143654, 0.0483748, 0.0562671, 0.715, 0, 0, 0
1294, 992.201, -1, 89, 0.00350811, -0.0079587, 1.73861, 0.0256786, -0.00168235, 0.0540566, 0.0598693, 0.717, 0, 0, 0
1295, 1028.27, -1, 89, 0.00389208, -0.00816814, 1.73819, 0.0269668, -0.000128828, 0.0388111, 0.0472601, 0.714, 0, 0, 0
1296, 1053.29, -1, 89, 0.00413643, -0.00832522, 1.73802, 0.0256182, -0.00250093, 0.0422065, 0.0494362, 0.714, 0, 0, 0
1297, 1084.16, -1, 89, 0.00446804, -0.00790634, 1.73831, 0.0215483, -0.00182545, 0.0481436, 0.0527776, 0.715, 0, 0, 0
1298, 1114.21, -1, 89, 0.00469494, -0.00729548, 1.73845, 0.0162787, -0.00513572, 0.0536368, 0.0562875, 0.717, 0, 0, 0
1299, 1146.11, -1, 89, 0.00424115, -0.00575959, 1.73871, 0.0136911, -0.0080811, 0.0494282, 0.051922, 0.717, 0, 0, 0
1300, 1175.97, -1, 89, 0.00390954, -0.00509636, 1.73885, 0.0166552, -0.00741741, 0.0503507, 0.05355, 0.717, 0, 0, 0
1301, 1210.47, -1, 89, 0.00404916, -0.0047822, 1.73929, 0.0158757, -0.0124667, 0.0447426, 0.0490852, 0.717, 0, 0, 0
1302, 1241.25, -1, 89, 0.00500909, -0.00575959, 1.73908, 0.0163742, -0.00868662, 0.0509264, 0.0541948, 0.718, 0, 0, 0
1303, 1267.76, -1, 89, 0.00441568, -0.00652753, 1.73871, 0.0167648, -0.00812478, 0.0494995, 0.0528892, 0.719, 0, 0, 0
1304, 1298.88, -1, 89, 0.00605629, -0.0069115, 1.73908, 0.0162898, -0.00738921, 0.056241, 0.059017, 0.72, 0, 0, 0
1305, 1329.55, -1, 89, 0.00699877, -0.00748746, 1.73737, 0.0131593, -0.00837041, 0.059905, 0.0619018, 0.722, 0, 0, 0
1306, 1359.27, -1, 89, 0.0069115, -0.00645772, 1.73931, 0.00654144, -0.0130928, 0.0598304, 0.0615945, 0.723, 0, 0, 0
1307, 1393.85, -1, 89, 0.00631809, -0.00558505, 1.73908, 0.00397149, -0.0239662, 0.0513258, 0.0567845, 0.722, 0, 0, 0
1308, 1420.69, -1, 89, 0.00561996, -0.00500909, 1.73877, 0.00600376, -0.0244779, 0.0498054, 0.0558192, 0.723, 0, 0, 0
1309, 1453.6, -1, 89, 0.00441568, -0.00488692, 1.73971, 0.00603027, -0.0267581, 0.0542092, 0.0607535, 0.724, 0, 0, 0
1310, 1485.2, -1, 89, 0.00298451, -0.00490438, 1.73945, 0.00695268, -0.0239875, 0.0597148, 0.0647271, 0.726, 0, 0, 0
1311, 1511.21, -1, 89, 0.0020944, -0.00467748, 1.73938, 0.00663997, -0.0219395, 0.0610568, 0.0652178, 0.728, 0, 0, 0
1312, 1547.93, -1, 89, 0.00150098, -0.00366519, 1.73924, 0.00417583, -0.0236455, 0.0555505, 0.0605178, 0.728, 0, 0, 0
1313, 1573.02, -1, 89, 0.000837758, -0.00328122, 1.73929, 0.00512487, -0.0258273, 0.0543841, 0.0604231, 0.729, 0, 0, 0
1314, 1609.69, -1, 89, 3.49066e-05, -0.00324631, 1.73905, 0.00837983, -0.0260195, 0.0534418, 0.0600272, 0.73, 0, 0, 0
1315, 1639.29, -1, 89, -5.23599e-05, -0.00352557, 1.73912, 0.00600741, -0.0253756, 0.0561628, 0.0619215, 0.731, 0, 0, 0
1316, 1670.28, -1, 89, -0.000366519, -0.00359538, 1.73931, 0.00368844, -0.0271423, 0.0571202, 0.0633485, 0.733, 0, 0, 0
1317, 1699.17, -1, 89, -0.000925025, -0.00361283, 1.73875, 0.00236938, -0.0255338, 0.0520539, 0.0580275, 0.733, 0, 0, 0
1318, 1727.63, -1, 89, -0.00132645, -0.00336849, 1.73898, 0.00223377, -0.0283154, 0.0534466, 0.0605251, 0.734, 0, 0, 0
1319, 1758.51, -1, 89, -0.00188496, -0.00335103, 1.73948, 0.000978723, -0.0260079, 0.0537963, 0.0597613, 0.736, 0, 0, 0
1320, 1788.97, -1, 89, -0.00289725, -0.00314159, 1.73905, -0.000329668, -0.0260771, 0.0521383, 0.0582969, 0.737, 0, 0, 0
1321, 1824.63, -1, 89, -0.00410152, -0.00237365, 1.73978, -0.000566224, -0.0249982, 0.0517408, 0.057466, 0.738, 0, 0, 0
1322, 1871.28, -1, 89, -0.00572468, -0.00178024, 1.73941, -0.000138764, -0.0156356, 0.0548261, 0.0570122, 0.741, 0, 0, 0
1323, 1915.48, -1, 89, -0.00595157, -0.00144862, 1.73878, -0.00313939, -0.0132989, 0.0554382, 0.0570973, 0.743, 0, 0, 0
1324, 1959.6, -1, 89, -0.00445059, -0.000610865, 1.73985, -0.00665249, -0.0115882, 0.0482722, 0.0500874, 0.743, 0, 0, 0
1325, 1999.45, -1, 89, -0.00495674, 0.000575959, 1.73917, -0.00960476, -0.0190886, 0.050846, 0.0551538, 0.745, 0, 0, 0
1326, 2046.57, -1, 89, -0.00542797, 0.00164061, 1.74009, -0.0102692, -0.0220977, 0.047023, 0.0529616, 0.747, 0, 0, 0
1327, 2084.37, -1, 89, -0.00673697, 0.00347321, 1.74032, -0.00928904, -0.0169814, 0.0400631, 0.0444939, 0.747, 0, 0, 0
1328, 2128.08, -1, 89, -0.00808087, 0.00408407, 1.73945, -0.0011361, -0.00966285, 0.0414882, 0.0426138, 0.748, 0, 0, 0
1329, 2174.31, -1, 89, -0.00797615, 0.00392699, 1.73992, 0.0017659, -0.00577195, 0.037941, 0.0384182, 0.749, 0, 0, 0
1330, 2214.74, -1, 89, -0.00757473, 0.00368264, 1.73964, 0.00336873, -0.00361209, 0.0349696, 0.0353167, 0.749, 0, 0, 0
1331, 2256.52, -1, 89, -0.00729548, 0.00270526, 1.73988, 0.00405549, 0.0017576, 0.0293749, 0.0297055, 0.749, 0, 0, 0
1332, 2296.35, -1, 89, -0.00628319, 0.00247837, 1.73995, 0.00416264, 0.00140384, 0.0319187, 0.0322196, 0.75, 0, 0, 0
1333, 2344.62, -1, 89, -0.00565487, 0.00286234, 1.74046, 0.0117657, 0.00316777, 0.0282428, 0.0307591, 0.751, 0, 0, 0
1334, 2387.62, -1, 89, -0.00572468, 0.00289725, 1.74036, 0.00660463, 0.0105214, 0.0267243, 0.0294705, 0.752, 0, 0, 0
1335, 2434.88, -1, 89, -0.00579449, 0.00225147, 1.74049, 0.00912996, 0.0122515, 0.0316772, 0.0351696, 0.753, 0, 0, 0
1336, 2481.16, -1, 89, -0.00617847, 0.00153589, 1.74055, 0.00629735, 0.0134559, 0.0285915, 0.032221, 0.754, 0, 0, 0
1337, 2524.34, -1, 89, -0.00624828, 0.00136136, 1.74107, 0.0054464, 0.0101144, 0.0326253, 0.0345886, 0.755, 0, 0, 0
1338, 2573.67, -1, 89, -0.00528835, 0.000191986, 1.74182, 0.00516747, 0.0164966, 0.0291175, 0.0338625, 0.756, 0, 0, 0
1339, 2614.14, -1, 89, -0.00479966, -0.000349066, 1.74194, 0.00519498, 0.0184823, 0.02426, 0.0309375, 0.756, 0, 0, 0
1340, 2662.71, -1, 88, -0.0047473, -0.0010472, 1.74227, 0.00606077, 0.0181133, 0.0226662, 0.0296408, 0.757, 0, 0, 0
1341, 2709.68, -1, 88, -0.00411898, -0.00256563, 1.74254, 0.0104816, 0.0210564, 0.0265077, 0.0354385, 0.758, 0, 0, 0
1342, 2753.7, -1, 88, -0.00260054, -0.00392699, 1.74245, -0.000258983, 0.0328757, 0.0318243, 0.0457566, 0.76, 0, 0, 0
1343, 2795.32, -1, 88, -0.000558505, -0.00359538, 1.74165, -0.00353553, 0.0352481, 0.0302003, 0.0465509, 0.762, 0, 0, 0
1344, 2838.5, -1, 88, 0.00141372, -0.00328122, 1.74278, -0.00527338, 0.0308998, 0.0227931, 0.0387573, 0.761, 0, 0, 0
1345, 2876.92, -1, 88, 0.00123918, -0.00207694, 1.7429, -0.011243, 0.0265721, 0.0257047, 0.0386421, 0.763, 0, 0, 0
1346, 2916.39, -1, 88, 0.00101229, -0.000401426, 1.74344, -0.00921992, 0.0284039, 0.0209627, 0.0364859, 0.763, 0, 0, 0
1347, 2961.83, -1, 88, 0.00148353, 0.00162316, 1.74402, -0.00678556, 0.0320576, 0.0152021, 0.0361225, 0.763, 0, 0, 0
1348, 3006.34, -1, 88, 0.00413643, 0.00137881, 1.74299, -0.00610432, 0.0268583, 0.00826783, 0.0287574, 0.762, 0, 0, 0
1349, 3045.29, -1, 88, 0.00502655, 0.000610865, 1.74362, -0.00536279, 0.0262991, 0.00816044, 0.0280534, 0.761, 0, 0, 0
1350, 3082.88, -1, 88, 0.00497419, -0.000366519, 1.74378, -0.00564451, 0.0231324, 0.0135995, 0.0274211, 0.763, 0, 0, 0
1351, 3121.45, -1, 88, 0.00459022, -0.00144862, 1.74404, -0.00521428, 0.0181767, 0.0193086, 0.027026, 0.764, 0, 0, 0
1352, 3159.28, -1, 88, 0.00403171, -0.00235619, 1.7451, -0.00549779, 0.0159855, 0.016539, 0.0236495, 0.765, 0, 0, 0
1353, 3202.1, -1, 88, 0.00322886, -0.00253073, 1.74407, -0.00810265, 0.0171119, 0.016212, 0.0249259, 0.765, 0, 0, 0
1354, 3250.76, -1, 88, 0.00188496, -0.00202458, 1.74479, -0.00959599, 0.0230439, 0.0135603, 0.0284075, 0.766, 0, 0, 0
1355, 3297.17, -1, 88, 0.00198968, -0.00232129, 1.74503, -0.0102859, 0.0268291, 0.0102293, 0.0304998, 0.766, 0, 0, 0
1356, 3341.82, -1, 88, 0.00296706, -0.00207694, 1.74512, -0.0115924, 0.0258426, 0.0130839, 0.0311995, 0.767, 0, 0, 0
1357, 3380.45, -1, 88, 0.00471239, -0.00132645, 1.74519, -0.0135636, 0.024111, 0.0119997, 0.0301547, 0.767, 0, 0, 0
1358, 3418.98, -1, 88, 0.00471239, -0.00109956, 1.74538, -0.013625, 0.0194473, 0.0111461, 0.0262312, 0.768, 0, 0, 0
1359, 3456.82, -1, 88, 0.00462512, -0.000191986, 1.74563, -0.0134055, 0.0133143, 0.00772868, 0.0204135, 0.767, 0, 0, 0
1360, 3497.35, -1, 88, 0.0029147, 0.000698132, 1.74638, -0.0144859, 0.0124097, 0.000947564, 0.0190982, 0.766, 0, 0, 0
1361, 3535.98, -1, 88, 0.00247837, 0.00139626, 1.74577, -0.01292, 0.0123155, 0.00185214, 0.0179451, 0.767, 0, 0, 0
1362, 3584.43, -1, 88, 0.00225147, 0.0026529, 1.74624, -0.0126442, 0.0128592, 0.00155306, 0.018101, 0.766, 0, 0, 0
1363, 3634.2, -1, 88, 0.00181514, 0.00303687, 1.74666, -0.00724694, 0.0110293, 0.00737841, 0.0151197, 0.767, 0, 0, 0
1364, 3681.95, -1, 88, 0.00185005, 0.00251327, 1.74645, 0.000501479, 0.0135294, 0.010218, 0.0169618, 0.769, 0, 0, 0
1365, 3724.96, -1, 88, 0.0015708, 0.0010472, 1.74688, -0.00219922, 0.0137373, 0.0115225, 0.0180643, 0.77, 0, 0, 0
1366, 3762.66, -1, 88, 0.00178024, 0.000558505, 1.74592, -0.00440793, 0.0182223, 0.00261679, 0.0189296, 0.769, 0, 0, 0
1367, 3800.41, -1, 88, 0.00185005, 0.000488692, 1.74685, -0.00579895, 0.0173992, -0.00023439, 0.0183416, 0.768, 0, 0, 0
1368, 3838.28, -1, 88, 0.00268781, 0.000122173, 1.74638, -0.00990727, 0.0135946, -0.000163367, 0.0168224, 0.768, 0, 0, 0
1369, 3876.76, -1, 88, 0.00340339, 0.000610865, 1.74728, -0.00767169, 0.0135453, -0.00197044, 0.0156911, 0.768, 0, 0, 0
1370, 3915.28, -1, 88, 0.00352557, 0.00137881, 1.74737, -0.00583856, 0.0109261, -0.000720109, 0.0124092, 0.768, 0, 0, 0
1371, 3953.03, -1, 88, 0.00256563, 0.00129154, 1.74732, 0.00489151, 0.00684364, -0.0100199, 0.0130828, 0.766, 0, 0, 0
1372, 3991.01, -1, 88, 0.00190241, 0.000837758, 1.74762, 0.00254284, 0.0126234, -0.0113233, 0.0171474, 0.765, 0, 0, 0
1373, 4028.87, -1, 88, 0.00232129, 0.000453786, 1.74643, -0.00205473, 0.0172141, -0.0085846, 0.0193453, 0.765, 0, 0, 0
1374, 4066.78, -1, 88, 0.00479966, -0.000610865, 1.74685, -0.00438143, 0.0195205, -0.00369553, 0.0203447, 0.765, 0, 0, 0
1375, 4105.39, -1, 88, 0.0066497, -0.00106465, 1.745, -0.00722082, 0.0185522, -0.0031282, 0.0201522, 0.765, 0, 0, 0
1376, 4143.15, -1, 88, 0.00898845, -0.000802851, 1.74673, -0.0101948, 0.0138566, 0.00560612, 0.0180933, 0.767, 0, 0, 0
1377, 4180.77, -1, 88, 0.00865683, -8.72665e-05, 1.74547, -0.01358, 0.00899309, 0.00443625, 0.0168811, 0.767, 0, 0, 0
1378, 4218.61, -1, 88, 0.00720821, 0.000890118, 1.74639, -0.0150425, 0.00919548, 0.00831526, 0.019493, 0.769, 0, 0, 0
1379, 4256.53, -1, 88, 0.00708604, 0.00214675, 1.74625, -0.0151343, 0.00499114, 0.00601119, 0.0170321, 0.769, 0, 0, 0
1380, 4294.13, -1, 88, 0.00719076, 0.00233874, 1.7457, -0.0112541, 0.00626579, 0.00456453, 0.0136656, 0.769, 0, 0, 0
1381, 4337.32, -1, 88, 0.00624828, 0.00383972, 1.74557, -0.00878629, 0.00721261, 0.00268108, 0.0116794, 0.77, 0, 0, 0
1382, 4380.57, -1, 88, 0.00551524, 0.00520108, 1.74454, -0.00686237, 0.00316011, 0.0078758, 0.0109136, 0.772, 0, 0, 0
1383, 4427.49, -1, 88, 0.00434587, 0.00614356, 1.74484, -0.00841296, -0.00186711, 0.0016986, 0.00878347, 0.772, 0, 0, 0
1384, 4436.05, -1, 88, 0.00434587, 0.00614356, 1.74484, -0.00841296, -0.00186711, 0.0016986, 0.00878347, 0.772, 0, 0, 0
1385, 4479.84, -1, 88, 0.00254818, 0.00699877, 1.7458, -0.00876776, -0.00576458, -0.00186723, 0.0106579, 0.772, 0, 0, 0
1386, 4524.19, -1, 88, 0.00151844, 0.00694641, 1.74611, -0.00992117, -0.00476529, -0.0172268, 0.0204426, 0.768, 0, 0, 0
1387, 4571.6, -1, 88, 0.00268781, 0.00677188, 1.7462, -0.00945887, -0.002678, -0.0152235, 0.0181217, 0.768, 0, 0, 0
1388, 4619.05, -1, 88, 0.00495674, 0.00659734, 1.74687, -0.00829527, -0.00271021, -0.00482421, 0.00997145, 0.77, 0, 0, 0
1389, 4667.13, -1, 88, 0.00752237, 0.00607375, 1.7469, -0.00665773, -0.0041201, -0.0129275, 0.0151136, 0.768, 0, 0, 0
1390, 4712.62, -1, 88, 0.00991347, 0.00548033, 1.74707, -0.0112401, -0.00579319, -0.0127968, 0.0179905, 0.767, 0, 0, 0
1391, 4755.39, -1, 88, 0.0112225, 0.00588176, 1.74746, -0.00730982, -0.0129239, -0.0160588, 0.0218711, 0.766, 0, 0, 0
1392, 4799.13, -1, 88, 0.01309, 0.00560251, 1.74776, -0.00823979, -0.0188534, -0.0109319, 0.0232991, 0.766, 0, 0, 0
1393, 4847.76, -1, 88, 0.0133518, 0.00561996, 1.74859, -0.00556088, -0.0247831, -0.00422599, 0.0257485, 0.767, 0, 0, 0
1394, 4895.42, -1, 88, 0.0123046, 0.00663225, 1.74849, -0.00927289, -0.0348222, -0.00715114, 0.0367384, 0.767, 0, 0, 0
1395, 4933.73, -1, 88, 0.0107687, 0.00836013, 1.74959, -0.00728707, -0.0379349, -0.00487847, 0.0389353, 0.767, 0, 0, 0
1396, 4960.46, -1, 88, 0.00959931, 0.00918043, 1.74943, -0.00479401, -0.0383521, -0.0089653, 0.0396767, 0.766, 0, 0, 0
1397, 4993.16, -1, 88, 0.00820305, 0.00975639, 1.75001, -0.00100417, -0.038009, -0.0171501, 0.0417111, 0.765, 0, 0, 0
1398, 5019.79, -1, 88, 0.00654498, 0.0095644, 1.74856, 0.00414562, -0.0428467, -0.0163701, 0.0460544, 0.764, 0, 0, 0
1399, 5052.3, -1, 88, 0.00514872, 0.0087441, 1.75013, 0.00861107, -0.0490633, -0.0197224, 0.0535755, 0.763, 0, 0, 0
1400, 5080.82, -1, 88, 0.00432842, 0.00837758, 1.74947, 0.0068887, -0.0459893, -0.0225375, 0.051676, 0.761, 0, 0, 0
1401, 5111.27, -1, 88, 0.00352557, 0.00729548, 1.74978, 0.00815837, -0.05018, -0.0273156, 0.0577125, 0.76, 0, 0, 0
1402, 5145.79, -1, 88, 0.00260054, 0.00588176, 1.75032, 0.00781658, -0.0502045, -0.023797, 0.0561061, 0.759, 0, 0, 0
1403, 5173.53, -1, 88, 0.00148353, 0.005044, 1.74978, 0.00654075, -0.0553955, -0.0259685, 0.0615289, 0.757, 0, 0, 0
1404, 5209.48, -1, 88, -0.000733038, 0.00443314, 1.75064, 0.00850729, -0.0595075, -0.0274375, 0.0660782, 0.755, 0, 0, 0
1405, 5237.21, -1, 88, -0.00249582, 0.00401426, 1.75053, 0.00809479, -0.0564153, -0.026069, 0.0626722, 0.753, 0, 0, 0
1406, 5271.29, -1, 88, -0.0034383, 0.00389208, 1.75043, 0.00633129, -0.0539676, -0.0241081, 0.0594456, 0.752, 0, 0, 0
1407, 5301.6, -1, 88, -0.00460767, 0.00345575, 1.75069, 0.00415669, -0.0526767, -0.0204736, 0.0566682, 0.751, 0, 0, 0
1408, 5327.22, -1, 88, -0.00558505, 0.00382227, 1.75023, 0.00166258, -0.0522407, -0.0188362, 0.0555577, 0.75, 0, 0, 0
1409, 5357.87, -1, 88, -0.00593412, 0.00406662, 1.75027, 0.00299614, -0.0524348, -0.01871, 0.0557534, 0.749, 0, 0, 0
1410, 5389.08, -1, 88, -0.00736529, 0.0045204, 1.75025, 0.00340666, -0.0507023, -0.0188862, 0.0542127, 0.747, 0, 0, 0
1411, 5424.39, -1, 88, -0.00820305, 0.00467748, 1.75029, 0.00318918, -0.0516442, -0.0190198, 0.0551276, 0.746, 0, 0, 0
1412, 5453.26, -1, 88, -0.00867429, 0.00493928, 1.75008, 0.00283575, -0.0519816, -0.0132698, 0.0537235, 0.745, 0, 0, 0
1413, 5483.07, -1, 88, -0.0092677, 0.00518363, 1.75011, 0.00446195, -0.0514262, -0.0156102, 0.0539281, 0.744, 0, 0, 0
1414, 5511.35, -1, 88, -0.00993092, 0.00516617, 1.7503, 0.00159769, -0.0505299, -0.00803756, 0.0511901, 0.744, 0, 0, 0
1415, 5547.8, -1, 88, -0.0106814, 0.00584685, 1.74987, 0.000320238, -0.0490201, -0.00870831, 0.0497886, 0.743, 0, 0, 0
1416, 5574.7, -1, 88, -0.0114843, 0.00699877, 1.74994, 0.00149821, -0.0407801, -0.00370048, 0.040975, 0.743, 0, 0, 0
1417, 5620.53, -1, 88, -0.0125664, 0.00841249, 1.74873, 0.00501536, -0.0369012, 0.00156603, 0.0372734, 0.743, 0, 0, 0
1418, 5669.47, -1, 87, -0.0116763, 0.00832522, 1.7494, 0.00903842, -0.0316999, -0.00198045, 0.0330227, 0.741, 0, 0, 0
1419, 5718.24, -1, 87, -0.011205, 0.00722566, 1.74971, 0.00718491, -0.0327173, 0.00726849, 0.0342765, 0.741, 0, 0, 0
1420, 5756.67, -1, 87, -0.0117461, 0.00694641, 1.74899, 0.00789517, -0.0344156, 0.0014959, 0.0353413, 0.739, 0, 0, 0
1421, 5800.59, -1, 87, -0.0128107, 0.00706858, 1.75016, 0.00511888, -0.0280926, 0.00804489, 0.0296668, 0.74, 0, 0, 0
1422, 5841.15, -1, 87, -0.0137357, 0.00699877, 1.74863, 0.00716604, -0.0188322, 0.00953803, 0.022293, 0.739, 0, 0, 0
1423, 5886.83, -1, 87, -0.0127933, 0.00633555, 1.74847, 0.00862326, -0.0125835, 0.0146761, 0.0211682, 0.74, 0, 0, 0
1424, 5933.12, -1, 87, -0.0122697, 0.00612611, 1.74854, 0.00744853, -0.012117, 0.0185085, 0.0233423, 0.741, 0, 0, 0
1425, 5973.86, -1, 87, -0.011397, 0.00555015, 1.74819, 0.0065714, -0.00848791, 0.0248085, 0.0270313, 0.742, 0, 0, 0
1426, 6017.84, -1, 87, -0.0106814, 0.00596903, 1.74917, 0.00812778, -4.43909e-05, 0.0199608, 0.0215522, 0.742, 0, 0, 0
1427, 6055.99, -1, 87, -0.00932006, 0.0058294, 1.74805, 0.00720393, 0.00255636, 0.0197963, 0.0212209, 0.742, 0, 0, 0
1428, 6103.87, -1, 87, -0.00750492, 0.00558505, 1.74807, 0.00803141, 0.00601396, 0.0209873, 0.0232624, 0.743, 0, 0, 0
1429, 6149.84, -1, 87, -0.00626573, 0.00595157, 1.74823, 0.0048058, 0.00496589, 0.0271818, 0.0280465, 0.745, 0, 0, 0
1430, 6200.98, -1, 87, -0.00565487, 0.00701622, 1.74789, 0.00809643, 0.00229302, 0.0250973, 0.0264704, 0.746, 0, 0, 0
1431, 6245.47, -1, 87, -0.00511381, 0.00767945, 1.74863, 0.00850295, 0.00290763, 0.0296913, 0.0310214, 0.748, 0, 0, 0
1432, 6292.89, -1, 87, -0.00518363, 0.00844739, 1.74844, 0.0107136, 0.0069093, 0.0216946, 0.0251629, 0.747, 0, 0, 0
1433, 6336.93, -1, 87, -0.00509636, 0.00846485, 1.74833, 0.0113743, 0.00548385, 0.0176124, 0.0216713, 0.747, 0, 0, 0
1434, 6382.5, -1, 87, -0.00277507, 0.00858702, 1.74833, 0.0134978, 0.0118673, 0.0210267, 0.0276613, 0.749, 0, 0, 0
1435, 6427.36, -1, 87, -0.00115192, 0.00933751, 1.74774, 0.0115989, 0.00982971, 0.0147194, 0.0211617, 0.748, 0, 0, 0
1436, 6472.32, -1, 87, -0.00158825, 0.00986111, 1.74753, 0.0151608, 0.00677017, 0.0164354, 0.0233625, 0.749, 0, 0, 0
1437, 6521.31, -1, 87, -0.00294961, 0.00959931, 1.74755, 0.0182657, 0.00691431, 0.0108434, 0.0223388, 0.748, 0, 0, 0
1438, 6541.51, -1, 87, -0.00310669, 0.00923279, 1.74746, 0.0225763, 0.00944843, 0.0119864, 0.0272514, 0.748, 0, 0, 0
1439, 6586.66, -1, 87, -0.00305433, 0.00813323, 1.74742, 0.0243206, 0.0104658, 0.0119691, 0.0290565, 0.748, 0, 0, 0
1440, 6630.3, -1, 87, -0.00190241, 0.00575959, 1.74721, 0.0325529, 0.0155461, 0.017326, 0.0400195, 0.75, 0, 0, 0
1441, 6681.81, -1, 87, 0.000366519, 0.00345575, 1.74709, 0.0232994, 0.00917743, 0.014843, 0.0291102, 0.75, 0, 0, 0
1442, 6725.13, -1, 87, 0.000575959, 0.00185005, 1.74685, 0.0178327, 0.00382124, 0.0145736, 0.0233452, 0.75, 0, 0, 0
1443, 6762.82, -1, 87, 0.000907571, 0.00148353, 1.74746, 0.0194775, 0.00770016, 0.0114324, 0.0238614, 0.75, 0, 0, 0
1444, 6803.51, -1, 87, 0.000785398, 0.00136136, 1.74697, 0.0172483, 0.00108804, 0.0126238, 0.0214021, 0.75, 0, 0, 0
1445, 6846.23, -1, 87, -0.000296706, 0.00120428, 1.74789, 0.0195901, 0.0015794, 0.00607508, 0.0205712, 0.749, 0, 0, 0
1446, 6889.53, -1, 87, -0.00286234, 0.000715585, 1.74706, 0.0255658, 0.00665021, 0.00764349, 0.0275002, 0.749, 0, 0, 0
1447, 6935.37, -1, 87, -0.00446804, -0.000942478, 1.7461, 0.0225864, 0.00987341, 0.0106479, 0.0268516, 0.75, 0, 0, 0
1448, 6977.47, -1, 87, -0.0047473, -0.00312414, 1.74678, 0.0190122, 0.0130013, 0.00780032, 0.0243176, 0.749, 0, 0, 0
1449, 7015.29, -1, 87, -0.00438078, -0.00354302, 1.74615, 0.0185552, 0.0140017, 0.0101417, 0.0253613, 0.749, 0, 0, 0
1450, 7041.63, -1, 87, -0.00410152, -0.0034383, 1.74671, 0.0166579, 0.0176563, 0.0142791, 0.0281624, 0.75, 0, 0, 0
1451, 7074.31, -1, 87, -0.00354302, -0.00368264, 1.7462, 0.0147686, 0.024495, 0.0128905, 0.0313732, 0.75, 0, 0, 0
1452, 7106.26, -1, 87, -0.00354302, -0.00441568, 1.74627, 0.0141296, 0.0240861, 0.0136468, 0.0310809, 0.751, 0, 0, 0
1453, 7138.03, -1, 87, -0.00244346, -0.00520108, 1.74615, 0.00739309, 0.0273285, 0.0142869, 0.0317115, 0.751, 0, 0, 0
1454, 7164.07, -1, 87, -0.00148353, -0.00568977, 1.74563, 0.00588862, 0.0266005, 0.00638834, 0.0279834, 0.749, 0, 0, 0
1455, 7195.98, -1, 87, -0.000628319, -0.00520108, 1.7465, 0.00336022, 0.0288328, 0.00793377, 0.0300926, 0.75, 0, 0, 0
1456, 7229.39, -1, 87, 0.00150098, -0.00424115, 1.74704, 0.00397912, 0.0235603, 0.009762, 0.0258112, 0.75, 0, 0, 0
1457, 7256.45, -1, 87, 0.00195477, -0.00336849, 1.74577, 0.00339977, 0.0200106, 0.011, 0.0230864, 0.75, 0, 0, 0
1458, 7287.04, -1, 87, 0.00172788, -0.00244346, 1.74732, 0.00687505, 0.0166976, 0.00268413, 0.018256, 0.748, 0, 0, 0
1459, 7322.42, -1, 87, 0.000890118, -0.0010821, 1.74622, 0.013646, 0.0296103, 0.00147735, 0.0326369, 0.747, 0, 0, 0
1460, 7348.17, -1, 87, 0.00148353, -0.001309, 1.74639, 0.0140848, 0.0291065, 0.00534648, 0.0327743, 0.747, 0, 0, 0
1461, 7381.2, -1, 87, 0.00202458, -0.00216421, 1.74545, 0.00719495, 0.0278064, 0.0081661, 0.0298604, 0.747, 0, 0, 0
1462, 7412.32, -1, 87, 0.00347321, -0.0023911, 1.7461, 0.00233185, 0.0283365, 0.00572867, 0.0290036, 0.747, 0, 0, 0
1463, 7440.14, -1, 87, 0.00408407, -0.00205949, 1.74522, 0.000739286, 0.0251657, 0.00690704, 0.0261069, 0.746, 0, 0, 0
1464, 7471.05, -1, 87, 0.00282743, 0.0039619, 1.74594, -0.00535571, 0.0214408, 0.0366403, 0.0427891, 0.746, 0, 0, 0
1465, 7505.43, -1, 87, -0.000925025, 0.0216421, 1.74584, -0.00867525, 0.0250419, 0.0763601, 0.0808283, 0.747, 0, 0, 0
1466, 7531.79, -1, 87, -0.00146608, 0.029147, 1.74543, 0.0216354, 0.0339603, 0.0957143, 0.103839, 0.75, 0, 0, 0
1467, 7565.61, -1, 87, 0.00247837, 0.0234921, 1.74542, 0.0325897, 0.0550313, 0.0868649, 0.107871, 0.75, 0, 0, 0
1468, 7592.54, -1, 87, 0.00492183, 0.0175057, 1.74496, 0.0211975, 0.0482092, 0.0899731, 0.104253, 0.752, 0, 0, 0
1469, 7627.73, -1, 87, 0.0104371, 0.0042586, 1.74453, 0.00894366, 0.0477946, 0.0777274, 0.0916835, 0.752, 0, 0, 0
1470, 7653.47, -1, 87, 0.0118857, 0.00132645, 1.74343, 0.00536677, 0.0440234, 0.0790157, 0.090611, 0.754, 0, 0, 0
1471, 7690.31, -1, 86, 0.013823, -0.00174533, 1.74414, -0.00144602, 0.0363412, 0.0777797, 0.085863, 0.755, 0, 0, 0
1472, 7719.54, -1, 86, 0.0143292, -0.00324631, 1.74376, -5.73563e-05, 0.0286563, 0.0782573, 0.083339, 0.758, 0, 0, 0
1473, 7745.55, -1, 86, 0.0131772, -0.00376991, 1.74412, -0.00163539, 0.0180267, 0.0751036, 0.077254, 0.76, 0, 0, 0
1474, 7778.76, -1, 86, 0.0118333, -0.00411898, 1.74479, -0.00185052, 0.0100764, 0.0746689, 0.0753684, 0.763, 0, 0, 0
1475, 7811.17, -1, 86, 0.00993092, -0.00492183, 1.74456, -0.00276633, 0.0078091, 0.0735291, 0.0739943, 0.765, 0, 0, 0
1476, 7841.51, -1, 86, 0.00818559, -0.00507891, 1.74514, -0.00404342, 0.0066235, 0.0722663, 0.0726817, 0.767, 0, 0, 0
1477, 7868.94, -1, 86, 0.00638791, -0.00565487, 1.74479, -0.00365616, 0.00505992, 0.0769023, 0.0771553, 0.77, 0, 0, 0
1478, 7902.48, -1, 86, 0.0042586, -0.00623083, 1.74512, -0.00538293, 0.00249896, 0.0729538, 0.0731947, 0.773, 0, 0, 0
1479, 7928.79, -1, 86, 0.00340339, -0.00628319, 1.74505, -0.00947294, 0.00257483, 0.0707017, 0.07138, 0.774, 0, 0, 0
1480, 7960.98, -1, 86, 0.00211185, -0.00605629, 1.74484, -0.0110247, 0.00500216, 0.088246, 0.0890726, 0.777, 0, 0, 0
1481, 7989.79, -1, 86, -0.000314159, -0.0055676, 1.74481, -0.0123041, 0.0010737, 0.141407, 0.141946, 0.781, 0, 0, 0
1482, 8023.48, -1, 86, -0.0020944, -0.00527089, 1.74519, -0.0152847, -0.00256948, 0.197206, 0.197814, 0.786, 0, 0, 0
1483, 8053.08, -1, 86, -0.00366519, -0.00471239, 1.74514, -0.0266197, 0.0019744, 0.256827, 0.25821, 0.792, 0, 0, 0
1484, 8081.33, -1, 86, -0.00500909, -0.0039968, 1.74508, -0.0288644, 0.00674263, 0.297145, 0.29862, 0.797, 0, 0, 0
1485, 8117.95, -1, 86, -0.00537561, -0.00401426, 1.74606, -0.0328032, 0.0234659, 0.348332, 0.350659, 0.805, 0, 0, 0
1486, 8146.43, -1, 86, -0.00453786, -0.00455531, 1.74646, -0.0383964, 0.0239708, 0.378467, 0.381164, 0.81, 0, 0, 0
1487, 8175.09, -1, 86, -0.00375246, -0.00490438, 1.74615, -0.0491616, 0.0267194, 0.422255, 0.425947, 0.819, 0, 0, 0
1488, 8209.46, -1, 86, -0.0039968, -0.00368264, 1.74611, -0.0586606, 0.0355051, 0.473858, 0.478793, 0.833, 0, 0, 0
1489, 8237.74, -1, 86, -0.00289725, -0.00272271, 1.74763, -0.0658678, 0.0491014, 0.505282, 0.511917, 0.844, 0, 0, 0
1490, 8267.99, -1, 86, -0.00191986, -0.00205949, 1.74854, -0.0760507, 0.049582, 0.547677, 0.55515, 0.857, 0, 0, 0
1491, 8298.99, -1, 86, -0.00144862, 0.000244346, 1.74784, -0.0839596, 0.0502293, 0.576472, 0.584715, 0.871, 0, 0, 0
1492, 8333.62, -1, 86, -0.00116937, 0.0026529, 1.74887, -0.0970842, 0.0446545, 0.624848, 0.63392, 0.893, 0, 0, 0
1493, 8360.83, -1, 86, -0.000872665, 0.0037001, 1.75009, -0.0998127, 0.0498162, 0.654043, 0.663488, 0.908, 0, 0, 0
1494, 8391.65, -1, 86, -0.00015708, 0.0045204, 1.75041, -0.10239, 0.0567738, 0.682656, 0.692623, 0.926, 0, 0, 0
1495, 8421.65, -1, 86, 1.74533e-05, 0.00443314, 1.75015, -0.109318, 0.0568141, 0.723705, 0.734117, 0.951, 0, 0, 0
1496, 8451.72, -1, 86, -0.000349066, 0.00417134, 1.75153, -0.104741, 0.0552013, 0.740163, 0.749572, 0.965, 0, 0, 0
1497, 8482.23, -1, 86, -0.000959931, 0.00401426, 1.7536, -0.101689, 0.0557406, 0.768872, 0.777568, 0.991, 0, 0, 0
1498, 8512.62, -1, 86, -0.00125664, 0.00363028, 1.75315, -0.103416, 0.059837, 0.793274, 0.802221, 1.014, 0, 0, 0
1499, 8543.35, -1, 86, -0.00106465, 0.00272271, 1.75358, -0.111125, 0.0603379, 0.818996, 0.8287, 1.042, 0, 0, 0
1500, 8574.1, -1, 86, -0.000767945, 0.00197222, 1.75474, -0.114713, 0.0663503, 0.834271, 0.84473, 1.066, 0, 0, 0
1501, 8605.11, -1, 86, -0.00109956, 0.000820305, 1.75535, -0.121006, 0.056336, 0.842731, 0.853236, 1.094, 0, 0, 0
1502, 8636.44, -1, 86, -0.00151844, 0.00015708, 1.75577, -0.126244, 0.0706656, 0.8484, 0.860647, 1.11, 0, 0, 0
1503, 8667.01, -1, 86, -0.00165806, -0.000750492, 1.75664, -0.12447, 0.0842303, 0.864538, 0.877504, 1.14, 0, 0, 0
1504, 8698.42, -1, 86, -0.00172788, -0.00164061, 1.7562, -0.143883, 0.08243, 0.868971, 0.884652, 1.165, 0, 0, 0
1505, 8728.3, -1, 86, -0.00132645, -0.00216421, 1.75735, -0.158557, 0.0797031, 0.875046, 0.89286, 1.19, 0, 0, 0
1506, 8765.1, -1, 86, -0.000541052, -0.00240855, 1.75805, -0.161197, 0.076481, 0.88305, 0.900895, 1.216, 0, 0, 0
1507, 8790.79, -1, 86, -0.00151844, -0.00333358, 1.75812, -0.150967, 0.0786357, 0.875891, 0.892277, 1.249, 0, 0, 0
1508, 8822.69, -1, 86, -0.00237365, -0.00403171, 1.75831, -0.146699, 0.12233, 0.883451, 0.903865, 1.275, 0, 0, 0
1509, 8853.12, -1, 86, -0.00216421, -0.00439823, 1.75889, -0.153517, 0.116342, 0.880943, 0.901756, 1.292, 0, 0, 0
1510, 8883.04, -1, 86, -0.000750492, -0.00539307, 1.75948, -0.150714, 0.0936996, 0.882517, 0.900184, 1.322, 0, 0, 0
1511, 8913.36, -1, 86, -0.000959931, -0.00516617, 1.75992, -0.156932, 0.0910962, 0.875281, 0.893892, 1.351, 0, 0, 0
1512, 8942.95, -1, 86, -0.000959931, -0.00479966, 1.76069, -0.150313, 0.0988389, 0.879746, 0.897951, 1.377, 0, 0, 0
1513, 8980.13, -1, 86, -0.000575959, -0.00361283, 1.76053, -0.16549, 0.0967181, 0.877782, 0.898466, 1.407, 0, 0, 0
1514, 9011.12, -1, 86, -0.000471239, -0.00356047, 1.76102, -0.14477, 0.0887852, 0.874415, 0.890754, 1.432, 0, 0, 0
1515, 9036.43, -1, 86, -0.000139626, -0.00364774, 1.761, -0.154403, 0.108909, 0.870277, 0.890552, 1.453, 0, 0, 0
1516, 9069.1, -1, 86, 0.000226893, -0.00333358, 1.76116, -0.169345, 0.104589, 0.871592, 0.89403, 1.479, 0, 0, 0
1517, 9096.1, -1, 86, 0.000558505, -0.00214675, 1.76123, -0.153877, 0.080265, 0.860334, 0.877665, 1.506, 0, 0, 0
1518, 9130.65, -1, 86, 0.000383972, -0.00165806, 1.76158, -0.157206, 0.103496, 0.857114, 0.877536, 1.531, 0, 0, 0
1519, 9157.74, -1, 86, 0.000191986, -0.00116937, 1.76151, -0.180621, 0.0864148, 0.854111, 0.877267, 1.548, 0, 0, 0
1520, 9190.67, -1, 86, 5.23599e-05, -0.000872665, 1.76182, -0.180412, 0.0705259, 0.85522, 0.876883, 1.577, 0, 0, 0
1521, 9221.89, -1, 86, 5.23599e-05, -0.000715585, 1.76268, -0.19265, 0.0782619, 0.849086, 0.874178, 1.593, 0, 0, 0
1522, 9254.28, -1, 86, -0.000506145, 3.49066e-05, 1.76221, -0.171702, 0.0720757, 0.83794, 0.858382, 1.629, 0, 0, 0
1523, 9278.8, -1, 86, -0.000837758, 0.000471239, 1.76257, -0.162288, 0.0524032, 0.827461, 0.844852, 1.644, 0, 0, 0
1524, 9310.37, -1, 86, -0.000628319, 0.00155334, 1.76193, -0.16155, 0.104442, 0.830239, 0.852234, 1.673, 0, 0, 0
1525, 9342.17, -1, 86, -0.000296706, 0.00242601, 1.76214, -0.168299, 0.100322, 0.817732, 0.840878, 1.695, 0, 0, 0
1526, 9372.21, -1, 86, 0.000174533, 0.00280998, 1.76271, -0.162815, 0.0937236, 0.809884, 0.831387, 1.717, 0, 0, 0
1527, 9402.35, -1, 86, -0.000314159, 0.00301942, 1.76256, -0.165635, 0.0858324, 0.79961, 0.821084, 1.739, 0, 0, 0
1528, 9433.42, -1, 86, -0.000575959, 0.00394444, 1.76439, -0.179884, 0.0995618, 0.804225, 0.83009, 1.767, 0, 0, 0
1529, 9463.28, -1, 86, -0.000663225, 0.00378736, 1.76296, -0.157074, 0.0941126, 0.806966, 0.82748, 1.787, 0, 0, 0
1530, 9493.7, -1, 86, -0.000855211, 0.00387463, 1.76297, -0.150844, 0.0676599, 0.807658, 0.824405, 1.807, 0, 0, 0
1531, 9533.53, -1, 86, 0.000349066, 0.00383972, 1.76186, -0.114975, 0.051535, 0.809171, 0.818922, 1.847, 0, 0, 0
1532, 9575.34, -1, 86, 0.000541052, 0.0039619, 1.76418, -0.117854, 0.0891063, 0.807292, 0.820701, 1.883, 0, 0, 0
1533, 9615.66, -1, 86, 0.000558505, 0.00394444, 1.76421, -0.129293, 0.0955151, 0.807911, 0.823748, 1.903, 0, 0, 0
1534, 9656.5, -1, 86, 0.00020944, 0.00460767, 1.76313, -0.129701, 0.110123, 0.801933, 0.819784, 1.942, 0, 0, 0
1535, 9698.06, -1, 85, 0.00116937, 0.00488692, 1.76268, -0.10848, 0.134356, 0.793282, 0.81186, 1.975, 0, 0, 0
1536, 9739.84, -1, 85, 0.00136136, 0.00464258, 1.76367, -0.142016, 0.0737141, 0.787623, 0.803712, 2.008, 0, 0, 0
1537, 9781.13, -1, 85, 0.0020944, 0.00446804, 1.76378, -0.134178, 0.0735201, 0.779389, 0.794264, 2.028, 0, 0, 0
1538, 9822.75, -1, 85, 0.00204204, 0.00363028, 1.76418, -0.133885, 0.0840771, 0.772507, 0.788518, 2.056, 0, 0, 0
1539, 9864.36, -1, 85, 0.00274017, 0.00240855, 1.7625, -0.120964, 0.0851121, 0.769462, 0.783548, 2.091, 0, 0, 0
1540, 9906.02, -1, 85, 0.0029147, 0.00169297, 1.76318, -0.116008, 0.0713129, 0.763413, 0.775463, 2.113, 0, 0, 0
1541, 9947.03, -1, 85, 0.00263545, 0.000890118, 1.76294, -0.115084, 0.0329898, 0.76441, 0.773728, 2.148, 0, 0, 0
1542, 9988.72, -1, 85, 0.00221657, 0.000837758, 1.76238, -0.0972178, 0.00517112, 0.76137, 0.767569, 2.167, 0, 0, 0
1543, 10029.2, -1, 85, 0.00242601, 0.000383972, 1.76236, -0.0829068, -0.030049, 0.761249, 0.766339, 2.194, 0, 0, 0
1544, 10070.9, -1, 85, 0.00354302, 0.00015708, 1.76243, -0.105411, -0.0906581, 0.76346, 0.776016, 2.225, 0, 0, 0
1545, 10083.9, -1, 85, 0.00385718, 1.74533e-05, 1.76201, -0.115584, -0.109442, 0.757923, 0.774458, 2.233, 0, 0, 0
1546, 10124.6, -1, 85, 0.00392699, -0.000191986, 1.76198, -0.128842, -0.129698, 0.758547, 0.780266, 2.26, 0, 0, 0
1547, 10165.5, -1, 85, 0.00321141, 5.23599e-05, 1.76088, -0.136115, -0.162594, 0.760214, 0.789234, 2.29, 0, 0, 0
1548, 10207.1, -1, 85, 0.00406662, 0.000750492, 1.76172, -0.144224, -0.178125, 0.761079, 0.794839, 2.311, 0, 0, 0
1549, 10247.2, -1, 85, 0.0039968, 0.000837758, 1.761, -0.154923, -0.218691, 0.765068, 0.810652, 2.346, 0, 0, 0
1550, 10285.3, -1, 85, 0.00335103, 0.000488692, 1.76165, -0.160266, -0.221162, 0.770251, 0.817242, 2.361, 0, 0, 0
1551, 10323.3, -1, 85, 0.00321141, 0.00115192, 1.76092, -0.166491, -0.251488, 0.768121, 0.825213, 2.397, 0, 0, 0
1552, 10362.1, -1, 85, 0.00312414, 0.00164061, 1.76081, -0.168009, -0.268328, 0.770432, 0.832942, 2.429, 0, 0, 0
1553, 10400.8, -1, 85, 0.00301942, 0.00162316, 1.76069, -0.164802, -0.276501, 0.77055, 0.83508, 2.449, 0, 0, 0
1554, 10439.6, -1, 85, 0.00328122, 0.00137881, 1.76111, -0.164136, -0.283288, 0.776943, 0.843109, 2.473, 0, 0, 0
1555, 10482.7, -1, 85, 0.00171042, 0.00237365, 1.76086, -0.163731, -0.298278, 0.70095, 0.779171, 2.506, 0, 0, 0
1556, 10529.1, -1, 85, -0.00455531, 0.00767945, 1.76058, -0.160412, -0.305968, 0.62034, 0.71005, 2.535, 0, 0, 0
1557, 10567.9, -1, 85, -0.00827286, 0.0109432, 1.75969, -0.155013, -0.303439, 0.573217, 0.666845, 2.55, 0, 0, 0
1558, 10584, -1, 85, -0.0119381, 0.0143466, 1.76016, -0.145729, -0.299273, 0.512047, 0.610732, 2.564, 0, 0, 0
1559, 10615, -1, 85, -0.0148528, 0.016633, 1.75959, -0.137628, -0.288529, 0.462257, 0.562025, 2.574, 0, 0, 0
1560, 10649, -1, 85, -0.0189194, 0.0197746, 1.76011, -0.123727, -0.270321, 0.392945, 0.492735, 2.59, 0, 0, 0
1561, 10680.1, -1, 85, -0.0225497, 0.0220261, 1.75929, -0.115909, -0.247944, 0.335027, 0.432613, 2.601, 0, 0, 0
1562, 10714.1, -1, 84, -0.0260578, 0.023178, 1.75957, -0.1083, -0.238261, 0.291953, 0.392089, 2.61, 0, 0, 0
1563, 10743.7, -1, 84, -0.0289376, 0.0239634, 1.75936, -0.0981292, -0.219938, 0.257186, 0.352345, 2.616, 0, 0, 0
1564, 10775.5, -1, 84, -0.0312414, 0.0247488, 1.75954, -0.0841535, -0.20202, 0.223791, 0.313011, 2.625, 0, 0, 0
1565, 10801, -1, 84, -0.0330216, 0.0251851, 1.75912, -0.082752, -0.183915, 0.194998, 0.28053, 2.63, 0, 0, 0
1566, 10832.3, -1, 84, -0.035308, 0.0257262, 1.75884, -0.0740502, -0.156445, 0.149248, 0.228546, 2.636, 0, 0, 0
1567, 10868, -1, 84, -0.0363727, 0.025412, 1.75959, -0.0574642, -0.130643, 0.1155, 0.183603, 2.64, 0, 0, 0
1568, 10893.6, -1, 84, -0.035884, 0.0248011, 1.7594, -0.0514081, -0.121956, 0.105159, 0.16904, 2.643, 0, 0, 0
1569, 10926.4, -1, 84, -0.0333358, 0.022602, 1.75961, -0.0356431, -0.100155, 0.0718305, 0.128301, 2.646, 0, 0, 0
1570, 10959.9, -1, 84, -0.0306305, 0.0200713, 1.76071, -0.0300465, -0.0740688, 0.0498974, 0.094227, 2.648, 0, 0, 0
1571, 10986.4, -1, 84, -0.0266512, 0.016633, 1.75966, -0.0244711, -0.0468449, 0.0131178, 0.0544551, 2.648, 0, 0, 0
1572, 11021.5, -1, 84, -0.0245917, 0.0150971, 1.76116, -0.0216535, -0.0271637, -0.0329894, 0.0479066, 2.652, 0, 0, 0
1573, 11050.7, -1, 84, -0.0238587, 0.01494, 1.76044, -0.0161676, -0.0096685, -0.0678939, 0.0704588, 2.651, 0, 0, 0
1574, 11077, -1, 84, -0.018867, 0.0135438, 1.76116, -0.0106012, 0.0188908, -0.0958828, 0.0982993, 2.648, 0, 0, 0
1575, 11110.2, -1, 84, -0.0100705, 0.0105418, 1.76074, -0.00334251, 0.0346984, -0.110619, 0.115981, 2.647, 0, 0, 0
1576, 11136.7, -1, 84, -0.0026529, 0.00792379, 1.76149, -0.00305907, 0.0419348, -0.118225, 0.125479, 2.645, 0, 0, 0
1577, 11173.8, -1, 84, 0.00694641, 0.00376991, 1.76072, 0.000996068, 0.0486009, -0.1068, 0.117343, 2.651, 0, 0, 0
1578, 11200.3, -1, 84, 0.0116413, 0.00172788, 1.76121, 0.0102226, 0.0513976, -0.116758, 0.127979, 2.648, 0, 0, 0
1579, 11232.2, -1, 84, 0.0165806, -0.000541052, 1.76088, 0.0176803, 0.0500374, -0.127258, 0.13788, 2.644, 0, 0, 0
1580, 11260.6, -1, 84, 0.0192335, -0.00237365, 1.76098, 0.0249876, 0.0493082, -0.134636, 0.145543, 2.64, 0, 0, 0
1581, 11291.5, -1, 84, 0.0212581, -0.00418879, 1.76137, 0.0283927, 0.047931, -0.141356, 0.151938, 2.635, 0, 0, 0
1582, 11329.6, -1, 84, 0.0219039, -0.00633555, 1.76182, 0.032554, 0.0514791, -0.147652, 0.159722, 2.63, 0, 0, 0
1583, 11357, -1, 84, 0.0216944, -0.00829031, 1.76175, 0.0229665, 0.0479166, -0.150586, 0.159686, 2.626, 0, 0, 0
1584, 11383.8, -1, 84, 0.0224973, -0.00951204, 1.76236, 0.0236921, 0.0578707, -0.174408, 0.185279, 2.614, 0, 0, 0
1585, 11414.5, -1, 84, 0.0239634, -0.0111003, 1.76193, 0.0233152, 0.0548055, -0.149986, 0.161379, 2.614, 0, 0, 0
1586, 11444.8, -1, 84, 0.0244172, -0.0116588, 1.76289, 0.0250419, 0.0430396, -0.149558, 0.15763, 2.609, 0, 0, 0
1587, 11475.9, -1, 84, 0.0246615, -0.0116588, 1.76352, 0.0177925, 0.0400958, -0.14902, 0.155342, 2.607, 0, 0, 0
1588, 11506.7, -1, 84, 0.0242252, -0.0115541, 1.76252, 0.0182735, 0.034599, -0.0828902, 0.0916613, 2.622, 0, 0, 0
1589, 11536.9, -1, 84, 0.0214675, -0.0098262, 1.76352, 0.0140969, 0.0285952, -0.111854, 0.116309, 2.626, 0, 0, 0
1590, 11572.7, -1, 84, 0.0169646, -0.00652753, 1.76381, 0.00714922, 0.0257508, -0.236948, 0.23845, 2.614, 0, 0, 0
1591, 11598.7, -1, 84, 0.0137881, -0.00364774, 1.76383, 0.0155856, 0.0353555, -0.32272, 0.325025, 2.604, 0, 0, 0
1592, 11631.7, -1, 84, 0.0122522, -0.00150098, 1.76378, 0.0132066, 0.0321843, -0.379883, 0.381473, 2.593, 0, 0, 0
1593, 11660, -1, 84, 0.0102974, -0.000453786, 1.76407, 0.0162541, 0.0330138, -0.422798, 0.424396, 2.575, 0, 0, 0
1594, 11693.9, -1, 84, 0.00757473, -0.000436332, 1.76409, 0.0173279, 0.0398757, -0.457998, 0.460057, 2.556, 0, 0, 0
1595, 11720.8, -1, 84, 0.00575959, -0.000139626, 1.76458, 0.0184716, 0.0507675, -0.458929, 0.462098, 2.543, 0, 0, 0
1596, 11754.8, -1, 84, 0.0044855, 0.000925025, 1.76502, 0.0235207, 0.0727982, -0.443744, 0.450291, 2.527, 0, 0, 0
1597, 11787.6, -1, 84, 0.00356047, 0.00148353, 1.76463, 0.0189616, 0.0713634, -0.437361, 0.44355, 2.516, 0, 0, 0
1598, 11817.3, -1, 84, 0.00190241, 0.00150098, 1.76509, 0.0213711, 0.0686772, -0.415726, 0.421902, 2.501, 0, 0, 0
1599, 11843.8, -1, 84, 0.00171042, 0.000959931, 1.76477, 0.0269092, 0.07677, -0.416014, 0.423893, 2.49, 0, 0, 0
1600, 11873.8, -1, 84, 0.00181514, 0.000610865, 1.76502, 0.0305419, 0.0789304, -0.412888, 0.421473, 2.478, 0, 0, 0
1601, 11911.6, -1, 84, 0.00165806, 0.000418879, 1.76488, 0.0339212, 0.0823663, -0.404104, 0.413805, 2.465, 0, 0, 0
1602, 11936.6, -1, 84, 0.00162316, -0.00115192, 1.76521, 0.0392675, 0.0806378, -0.395604, 0.405643, 2.453, 0, 0, 0
1603, 11969.8, -1, 84, 0.00169297, -0.00197222, 1.76552, 0.0431476, 0.08128, -0.396035, 0.406585, 2.441, 0, 0, 0
1604, 11997.3, -1, 84, 0.00174533, -0.0026529, 1.76531, 0.0413952, 0.0771553, -0.397475, 0.407005, 2.433, 0, 0, 0
1605, 12028.1, -1, 84, 0.00207694, -0.00301942, 1.76551, 0.0383082, 0.0744222, -0.399631, 0.408303, 2.421, 0, 0, 0
1606, 12064.6, -1, 84, 0.00260054, -0.00354302, 1.76556, 0.0390541, 0.0702737, -0.382655, 0.391009, 2.413, 0, 0, 0
1607, 12092.4, -1, 84, 0.00286234, -0.00431096, 1.76612, 0.0372956, 0.0681079, -0.395329, 0.402883, 2.4, 0, 0, 0
1608, 12120.9, -1, 84, 0.00321141, -0.00431096, 1.76542, 0.0364854, 0.0706959, -0.401431, 0.409238, 2.388, 0, 0, 0
1609, 12155.9, -1, 84, 0.00371755, -0.00361283, 1.76551, 0.038069, 0.078359, -0.387361, 0.397036, 2.375, 0, 0, 0
1610, 12185.4, -1, 84, 0.0034383, -0.0034383, 1.76554, 0.042859, 0.0807967, -0.389476, 0.400071, 2.37, 0, 0, 0
1611, 12212.6, -1, 84, 0.00301942, -0.00179769, 1.76427, 0.0493951, 0.0841988, -0.399668, 0.411417, 2.354, 0, 0, 0
1612, 12243.6, -1, 84, 0.00298451, -0.00116937, 1.76437, 0.0446606, 0.0788713, -0.393841, 0.404136, 2.345, 0, 0, 0
1613, 12279.4, -1, 84, 0.00286234, 5.23599e-05, 1.76482, 0.0398508, 0.074236, -0.404062, 0.412753, 2.331, 0, 0, 0
1614, 12303.1, -1, 84, 0.00272271, -0.00020944, 1.76617, 0.0426717, 0.0762434, -0.405473, 0.41478, 2.322, 0, 0, 0
1615, 12341.2, -1, 84, 0.00191986, 0.0010821, 1.76482, 0.0396543, 0.0734181, -0.396473, 0.405159, 2.311, 0, 0, 0
1616, 12368.1, -1, 84, 0.00174533, 0.000750492, 1.7658, 0.0399076, 0.0749491, -0.405563, 0.414356, 2.301, 0, 0, 0
1617, 12396.3, -1, 84, 0.0010821, 0.00176278, 1.76537, 0.033481, 0.0789382, -0.41721, 0.42593, 2.287, 0, 0, 0
1618, 12427.5, -1, 84, 0.000261799, 0.00237365, 1.76495, 0.0321374, 0.0760882, -0.426699, 0.43462, 2.274, 0, 0, 0
1619, 12461.5, -1, 84, -0.000802851, 0.003735, 1.76528, 0.0353984, 0.0778903, -0.437369, 0.445659, 2.259, 0, 0, 0
1620, 12487.6, -1, 84, -0.00115192, 0.0042237, 1.76477, 0.0469741, 0.0870922, -0.44437, 0.455254, 2.248, 0, 0, 0
1621, 12521.6, -1, 84, -0.00169297, 0.00514872, 1.76467, 0.0581016, 0.0889187, -0.452085, 0.464396, 2.235, 0, 0, 0
1622, 12551.2, -1, 84, -0.0023911, 0.00511381, 1.76435, 0.0730912, 0.093627, -0.451127, 0.466502, 2.222, 0, 0, 0
1623, 12580, -1, 84, -0.0029147, 0.00439823, 1.76409, 0.0712758, 0.0931974, -0.445244, 0.460444, 2.213, 0, 0, 0
1624, 12615.9, -1, 84, -0.00303687, 0.00443314, 1.76413, 0.0698547, 0.0935483, -0.469952, 0.484237, 2.194, 0, 0, 0
1625, 12642.5, -1, 84, -0.00296706, 0.00380482, 1.764, 0.0724529, 0.0963499, -0.475072, 0.490128, 2.185, 0, 0, 0
1626, 12672.4, -1, 84, -0.00322886, 0.00359538, 1.76371, 0.0712375, 0.0930099, -0.505387, 0.518789, 2.166, 0, 0, 0
1627, 12705.9, -1, 84, -0.0039619, 0.00314159, 1.76406, 0.0755258, 0.093043, -0.517073, 0.530779, 2.15, 0, 0, 0
1628, 12733.2, -1, 84, -0.00455531, 0.00294961, 1.76287, 0.0743154, 0.098829, -0.519598, 0.534109, 2.13, 0, 0, 0
1629, 12763.3, -1, 84, -0.00472984, 0.0029147, 1.76303, 0.0758749, 0.0970317, -0.521076, 0.535437, 2.124, 0, 0, 0
1630, 12794.5, -1, 84, -0.00539307, 0.00204204, 1.7624, 0.082465, 0.102296, -0.532372, 0.548347, 2.1, 0, 0, 0
1631, 12825.5, -1, 84, -0.00614356, 0.00176278, 1.76182, 0.0884609, 0.116524, -0.563058, 0.581754, 2.08, 0, 0, 0
1632, 12857.8, -1, 84, -0.00612611, 0.00132645, 1.7614, 0.0957865, 0.122931, -0.56925, 0.590197, 2.06, 0, 0, 0
1633, 12889, -1, 84, -0.00568977, 0.00153589, 1.76081, 0.100846, 0.128501, -0.573067, 0.595893, 2.042, 0, 0, 0
1634, 12919.7, -1, 84, -0.00659734, 0.0018326, 1.76071, 0.100298, 0.138848, -0.574514, 0.599503, 2.025, 0, 0, 0
1635, 12950.4, -1, 84, -0.00745256, 0.00214675, 1.76074, 0.104352, 0.154644, -0.58534, 0.61435, 2.004, 0, 0, 0
1636, 12979.7, -1, 84, -0.00757473, 0.00190241, 1.76078, 0.113153, 0.137549, -0.586332, 0.612788, 1.992, 0, 0, 0
1637, 13012.6, -1, 84, -0.00844739, 0.00195477, 1.76027, 0.10338, 0.145922, -0.586983, 0.61362, 1.972, 0, 0, 0
1638, 13041.1, -1, 84, -0.00954695, 0.00205949, 1.7603, 0.0924073, 0.155625, -0.588682, 0.615877, 1.951, 0, 0, 0
1639, 13073.8, -1, 84, -0.0092677, 0.00150098, 1.75978, 0.126706, 0.184916, -0.591791, 0.632823, 1.934, 0, 0, 0
1640, 13100.2, -1, 84, -0.0095644, 0.00179769, 1.75964, 0.131867, 0.177422, -0.592307, 0.632214, 1.925, 0, 0, 0
1641, 13131.6, -1, 84, -0.00895354, 0.000453786, 1.75973, 0.138827, 0.208946, -0.592697, 0.6436, 1.902, 0, 0, 0
1642, 13163.3, -1, 84, -0.00938987, -0.000733038, 1.7591, 0.152813, 0.211385, -0.59058, 0.645616, 1.884, 0, 0, 0
1643, 13192.3, -1, 84, -0.0103673, -0.00106465, 1.7592, 0.187513, 0.166688, -0.596121, 0.646766, 1.866, 0, 0, 0
1644, 13241.7, -1, 84, -0.0113272, -0.000698132, 1.75908, 0.185036, 0.176434, -0.600517, 0.652677, 1.84, 0, 0, 0
1645, 13280.6, -1, 84, -0.0122871, -0.000349066, 1.75975, 0.174908, 0.102563, -0.605492, 0.638539, 1.817, 0, 0, 0
1646, 13324.6, -1, 84, -0.0126013, 0.000645772, 1.76015, 0.129418, 0.0229569, -0.606719, 0.620793, 1.793, 0, 0, 0
1647, 13373.6, -1, 84, -0.0122522, 0.000994838, 1.75746, 0.0862166, -0.125273, -0.621511, 0.639846, 1.76, 0, 0, 0
1648, 13411.4, -1, 84, -0.0117112, 0.000680678, 1.759, 0.116289, -0.133065, -0.628567, 0.652936, 1.742, 0, 0, 0
1649, 13457.4, -1, 84, -0.0104022, 0.000698132, 1.75744, 0.0831895, -0.0880787, -0.642474, 0.653798, 1.716, 0, 0, 0
1650, 13496.3, -1, 84, -0.00912807, 0.000785398, 1.75762, 0.108564, -0.190469, -0.659845, 0.695313, 1.683, 0, 0, 0
1651, 13545.3, -1, 84, -0.00794125, 0.00164061, 1.75947, 0.0753341, -0.1559, -0.670865, 0.692849, 1.659, 0, 0, 0
1652, 13588.7, -1, 84, -0.00715585, 0.00226893, 1.75851, 0.0805409, -0.161922, -0.686955, 0.710361, 1.632, 0, 0, 0
1653, 13637.6, -1, 84, -0.00607375, 0.00289725, 1.75922, 0.113544, -0.108811, -0.710211, 0.727414, 1.592, 0, 0, 0
1654, 13681.8, -1, 84, -0.00466003, 0.00275762, 1.75994, 0.112452, -0.104372, -0.723735, 0.739819, 1.571, 0, 0, 0
1655, 13728.8, -1, 84, -0.00158825, 0.0018675, 1.76034, 0.110996, -0.0985096, -0.787927, 0.801782, 1.537, 0, 0, 0
1656, 13777, -1, 84, 0.00143117, 0.00207694, 1.76076, 0.121388, -0.119537, -0.865663, 0.882268, 1.498, 0, 0, 0
1657, 13818.8, -1, 84, 0.0031765, 0.00260054, 1.75982, 0.135835, -0.149608, -0.923916, 0.945756, 1.465, 0, 0, 0
1658, 13857.1, -1, 84, 0.00420624, 0.00258309, 1.76057, 0.113045, -0.18676, -0.981991, 1.00596, 1.424, 0, 0, 0
1659, 13900.1, -1, 84, 0.0047473, 0.00211185, 1.76123, 0.151982, -0.175028, -1.01659, 1.04269, 1.391, 0, 0, 0
1660, 13949.3, -1, 84, 0.00492183, -0.00158825, 1.76181, 0.135095, -0.219495, -1.05694, 1.08791, 1.342, 0, 0, 0
1661, 13987.5, -1, 84, 0.00596903, -0.00675442, 1.76107, 0.166292, -0.240616, -1.07567, 1.11473, 1.308, 0, 0, 0
1662, 14026.4, -1, 84, 0.0066148, -0.0146084, 1.7616, 0.169203, -0.273592, -1.0941, 1.14041, 1.262, 0, 0, 0
1663, 14064.9, -1, 84, 0.00644026, -0.0194255, 1.76154, 0.198386, -0.303969, -1.10188, 1.16013, 1.231, 0, 0, 0
1664, 14103.7, -1, 84, 0.00382227, -0.0241205, 1.76083, 0.204005, -0.332293, -1.10809, 1.17469, 1.184, 0, 0, 0
1665, 14142, -1, 84, 0.00270526, -0.0262148, 1.76111, 0.21536, -0.334137, -1.11288, 1.18175, 1.157, 0, 0, 0
1666, 14180.1, -1, 84, -0.000226893, -0.0311018, 1.76114, 0.218046, -0.337592, -1.04926, 1.12359, 1.109, 0, 0, 0
1667, 14218, -1, 84, -0.00623083, -0.0376293, 1.75966, 0.209547, -0.336749, -0.994817, 1.07097, 1.079, 0, 0, 0
1668, 14256.2, -1, 84, -0.0170519, -0.0454484, 1.75992, 0.231545, -0.322628, -0.892425, 0.976793, 1.04, 0, 0, 0
1669, 14295, -1, 84, -0.019635, -0.0462687, 1.7588, 0.164373, -0.287451, -0.819383, 0.883762, 1.009, 0, 0, 0
1670, 14333.8, -1, 84, -0.020944, -0.0433889, 1.75793, 0.128119, -0.269045, -0.732588, 0.790876, 0.979, 0, 0, 0
1671, 14379.1, -1, 84, -0.0226718, -0.0380307, 1.75674, 0.075771, -0.224276, -0.645615, 0.687648, 0.945, 0, 0, 0
1672, 14419, -1, 84, -0.026145, -0.0330914, 1.75554, 0.0448448, -0.188531, -0.557815, 0.590519, 0.918, 0, 0, 0
1673, 14461.2, -1, 84, -0.0306305, -0.0271748, 1.75404, -0.00108658, -0.140921, -0.478024, 0.498364, 0.894, 0, 0, 0
1674, 14503.1, -1, 84, -0.0301244, -0.0189194, 1.75308, -0.0543449, -0.0984565, -0.404337, 0.419685, 0.873, 0, 0, 0
1675, 14541.6, -1, 84, -0.027262, -0.0116588, 1.75287, -0.0720614, -0.0526681, -0.359355, 0.370274, 0.86, 0, 0, 0
1676, 14580.4, -1, 84, -0.0216595, 0.000610865, 1.75198, -0.102048, -0.00796963, -0.292713, 0.310094, 0.845, 0, 0, 0
1677, 14619, -1, 84, -0.015708, 0.0110828, 1.75304, -0.120891, 0.0218034, -0.246564, 0.27547, 0.835, 0, 0, 0
1678, 14656.9, -1, 84, -0.00963422, 0.0208916, 1.75278, -0.121043, 0.0278357, -0.194362, 0.230658, 0.826, 0, 0, 0
1679, 14699.7, -1, 84, -0.00204204, 0.0286409, 1.75338, -0.148705, 0.0694752, -0.13993, 0.215686, 0.819, 0, 0, 0
1680, 14741.9, -1, 84, 0.00663225, 0.0364425, 1.75425, -0.121985, 0.0796941, -0.0891614, 0.170825, 0.816, 0, 0, 0
1681, 14773.7, -1, 84, 0.0117984, 0.0398633, 1.75423, -0.120458, 0.0812738, -0.0536221, 0.15489, 0.816, 0, 0, 0
1682, 14812.3, -1, 84, 0.0165283, 0.0415737, 1.75458, -0.117487, 0.102871, -0.0249859, 0.158146, 0.817, 0, 0, 0
1683, 14851.1, -1, 84, 0.0235445, 0.0417657, 1.75578, -0.123033, 0.0989831, 0.0122129, 0.158379, 0.819, 0, 0, 0
1684, 14889.6, -1, 84, 0.0276809, 0.0433889, 1.75521, -0.110472, 0.0823284, 0.039956, 0.143452, 0.824, 0, 0, 0
1685, 14932.9, -1, 84, 0.031573, 0.0439823, 1.75589, -0.0966572, 0.103707, 0.0656143, 0.156215, 0.829, 0, 0, 0
1686, 14975.2, -1, 84, 0.0342783, 0.0422719, 1.75639, -0.0831636, 0.109183, 0.0900144, 0.164133, 0.838, 0, 0, 0
1687, 15021.3, -1, 84, 0.0378736, 0.0422195, 1.75744, -0.0827248, 0.0927706, 0.105822, 0.163243, 0.845, 0, 0, 0
1688, 15064.6, -1, 84, 0.0402298, 0.0411898, 1.75769, -0.0558475, 0.0786386, 0.119492, 0.153562, 0.856, 0, 0, 0
1689, 15113.3, -1, 84, 0.039619, 0.0389034, 1.75849, -0.0259121, 0.0787222, 0.123699, 0.148896, 0.865, 0, 0, 0
1690, 15152, -1, 84, 0.0386416, 0.036076, 1.75797, -0.0196001, 0.0669609, 0.165087, 0.179225, 0.891, 0, 0, 0
1691, 15200.1, -1, 84, 0.0369486, 0.0327947, 1.75837, -0.0102654, 0.0273228, 0.156582, 0.159279, 0.902, 0, 0, 0
1692, 15249.5, -1, 84, 0.0316952, 0.0294088, 1.76065, 0.00311945, -0.00159471, 0.153366, 0.153406, 0.915, 0, 0, 0
1693, 15293.9, -1, 84, 0.025953, 0.0269479, 1.76044, 0.00702204, -0.00632941, 0.154153, 0.154442, 0.924, 0, 0, 0
1694, 15332.3, -1, 84, 0.0194255, 0.0238412, 1.76177, 0.0192011, -0.0252597, 0.146878, 0.150266, 0.933, 0, 0, 0
1695, 15370.9, -1, 84, 0.0153938, 0.0219911, 1.76182, 0.0235263, -0.0225888, 0.129278, 0.133328, 0.937, 0, 0, 0
1696, 15409.5, -1, 84, 0.0114494, 0.0191288, 1.7625, 0.0350336, -0.0289623, 0.121327, 0.129562, 0.945, 0, 0, 0
1697, 15448, -1, 84, 0.00890118, 0.016249, 1.76235, 0.0412597, -0.0356944, 0.114329, 0.126679, 0.952, 0, 0, 0
1698, 15491.1, -1, 84, 0.0068766, 0.0125838, 1.76242, 0.0465281, -0.059904, 0.0992737, 0.124934, 0.959, 0, 0, 0
1699, 15538, -1, 84, 0.00214675, 0.00841249, 1.76318, 0.0463846, -0.0914683, 0.0857498, 0.133682, 0.967, 0, 0, 0
1700, 15587.9, -1, 84, -0.00413643, 0.00589921, 1.76292, 0.0534257, -0.093631, 0.0694334, 0.128227, 0.971, 0, 0, 0
1701, 15635.5, -1, 84, -0.0103323, 0.00314159, 1.76294, 0.0594343, -0.103079, 0.0507716, 0.129366, 0.974, 0, 0, 0
1702, 15680.3, -1, 84, -0.0140324, 0.000366519, 1.76299, 0.0605861, -0.0983282, -0.0488037, 0.125383, 0.976, 0, 0, 0
1703, 15721.2, -1, 84, -0.0164585, -0.000820305, 1.7628, 0.062142, -0.0943541, -0.282464, 0.304221, 0.971, 0, 0, 0
1704, 15760, -1, 83, -0.01775, -0.00331613, 1.76233, 0.0731246, -0.128499, -0.54365, 0.563396, 0.959, 0, 0, 0
1705, 15804.2, -1, 83, -0.0164759, -0.0068766, 1.76167, 0.0780225, -0.168576, -0.66282, 0.688357, 0.944, 0, 0, 0
1706, 15851.4, -1, 83, -0.0214675, -0.0138579, 1.76174, 0.0965265, -0.257975, -0.73203, 0.782136, 0.921, 0, 0, 0
1707, 15898.2, -1, 83, -0.039427, -0.0223228, 1.76181, 0.122892, -0.230963, -0.723246, 0.769111, 0.902, 0, 0, 0
1708, 15948.5, -1, 83, -0.0526217, -0.0304909, 1.7617, 0.141228, -0.196516, -0.74351, 0.781902, 0.877, 0, 0, 0
1709, 15992, -1, 83, -0.051365, -0.038659, 1.7616, 0.151033, -0.0906475, -0.755718, 0.775976, 0.85, 0, 0, 0
1710, 16038.7, -1, 83, -0.0413643, -0.0465305, 1.7617, 0.104673, -0.0742905, -0.772232, 0.782826, 0.821, 0, 0, 0
1711, 16082.8, -1, 83, -0.0258483, -0.0535991, 1.76144, 0.0340053, -0.0671039, -0.782108, 0.785717, 0.784, 0, 0, 0
1712, 16127.3, -1, 83, -0.0157603, -0.0516617, 1.76112, 0.016646, -0.0694795, -0.78548, 0.788722, 0.749, 0, 0, 0
1713, 16172.1, -1, 83, -0.0107163, -0.0448724, 1.76064, 0.0111974, -0.0500274, -0.784027, 0.785702, 0.711, 0, 0, 0
1714, 16216.9, -1, 83, -0.00577704, -0.0401775, 1.76165, 0.0013616, -0.0384634, -0.790291, 0.791228, 0.678, 0, 0, 0
1715, 16264, -1, 83, -0.000820305, -0.0370359, 1.76093, -0.00819336, -0.0303002, -0.791349, 0.791971, 0.638, 0, 0, 0
1716, 16309.8, -1, 83, 0.00102974, -0.034191, 1.76168, -0.0149242, -0.0251166, -0.792659, 0.793197, 0.614, 0, 0, 0
1717, 16356.6, -1, 83, 0.000628319, -0.0278205, 1.76098, -0.0138113, -0.0223915, -0.785107, 0.785547, 0.571, 0, 0, 0
1718, 16405.4, -1, 83, -8.72665e-05, -0.0209963, 1.75976, -0.0132793, -0.0157611, -0.786991, 0.787261, 0.528, 0, 0, 0
1719, 16452.5, -1, 83, 0.00101229, -0.0183783, 1.75989, -0.0208884, -0.0107473, -0.787026, 0.787376, 0.496, 0, 0, 0
1720, 16495, -1, 83, 0.00267035, -0.0159872, 1.75945, -0.0248308, -0.00493384, -0.787108, 0.787515, 0.461, 0, 0, 0
1721, 16533.5, -1, 83, 0.00359538, -0.0123569, 1.75879, -0.0328585, 0.00358846, -0.786641, 0.787335, 0.426, 0, 0, 0
1722, 16572.5, -1, 83, 0.00331613, -0.0101753, 1.75884, -0.0319715, 0.00449263, -0.786546, 0.787208, 0.402, 0, 0, 0
1723, 16611.6, -1, 83, 0.00328122, -0.00736529, 1.75749, -0.0357222, 0.00578786, -0.786369, 0.787202, 0.367, 0, 0, 0
1724, 16650.9, -1, 83, 0.00286234, -0.0060912, 1.75723, -0.0884097, 0.005579, -0.786343, 0.791317, 0.336, 0, 0, 0
1725, 16688.5, -1, 83, 0.000645772, -0.00499164, 1.75632, -0.110823, 0.00523764, -0.785264, 0.793063, 0.31, 0, 0, 0
1726, 16727.7, -1, 83, -0.00267035, -0.00129154, 1.75582, -0.135364, 0.00558522, -0.785337, 0.796937, 0.277, 0, 0, 0
1727, 16766.8, -1, 82, -0.00445059, 0.00368264, 1.75535, -0.126892, 0.00576786, -0.783942, 0.794166, 0.252, 0, 0, 0
1728, 16805, -1, 82, -0.00584685, 0.00925025, 1.7542, -0.124689, 0.00181808, -0.782431, 0.792306, 0.226, 0, 0, 0
1729, 16843.3, -1, 82, -0.0047473, 0.0123395, 1.75439, -0.110422, -7.11944e-05, -0.777169, 0.784974, 0.209, 0, 0, 0
1730, 16882.4, -1, 82, -0.00218166, 0.0148004, 1.75421, -0.101881, 0.00206019, -0.77548, 0.782147, 0.185, 0, 0, 0
1731, 16920.4, -1, 82, -0.000401426, 0.0150098, 1.75523, -0.10868, -0.000358242, -0.764686, 0.77237, 0.175, 0, 0, 0
1732, 16958.5, -1, 82, 8.72665e-05, 0.0118857, 1.75547, -0.0885366, 0.000671561, -0.783822, 0.788807, 0.136, 0, 0, 0
1733, 16996.1, -1, 82, -0.000645772, 0.0069115, 1.75484, -0.0765302, 0.00530211, -0.785945, 0.78968, 0.113, 0, 0, 0
1734, 17041.7, -1, 82, 0, -0.000855211, 1.75402, -0.055494, 0.0200366, -0.786769, 0.788978, 0.069, 0, 0, 0
1735, 17086, -1, 82, -0.000436332, -0.0095295, 1.75348, -0.0383352, 0.0240885, -0.786856, 0.788157, 0.034, 0, 0, 0
1736, 17136.9, -1, 82, -0.00553269, -0.0201935, 1.7536, -0.0182452, 0.0134463, -0.78687, 0.787197, 0, 0, 0, 0
1737, 17186.5, -1, 82, -0.00260054, -0.0128107, 1.75587, 0.0376866, 0.0119296, -0.786873, 0.787866, -0.044, 0, 0, 0
1738, 17234.2, -1, 82, 0.0102625, -0.0476998, 1.75437, 0.0507636, 0.0147507, -0.786871, 0.788645, -0.079, 0, 0, 0
1739, 17281.4, -1, 82, 0.00776672, -0.0564439, 1.75573, 0.0421447, 0.00830102, -0.786872, 0.788043, -0.107, 0, 0, 0
1740, 17328.6, -1, 82, 0.0010821, -0.0560251, 1.75496, 0.170644, -0.0102829, -0.786871, 0.805228, -0.154, 0, 0, 0
1741, 17377.2, -1, 82, 0.000698132, -0.0568977, 1.75434, 0.448747, -0.0180765, -0.786819, 0.905972, -0.189, 0, 0, 0
1742, 17420.8, -1, 82, -0.00790634, -0.0763232, 1.75482, 0.562503, -0.015951, -0.786726, 0.967266, -0.221, 0, 0, 0
1743, 17466.1, -1, 82, -0.0141546, -0.107058, 1.75488, 0.56185, -0.00546839, -0.131187, 0.576988, 0.239, 0, 0, 0
1744, 17518.2, -1, 82, -0.0213279, -0.151006, 1.75786, 0, -0, -0, 0, 0, 0, 0, 0
1745, 17562, -1, 82, -0.0318348, -0.184743, 1.75985, 0, -0, -0, 0, 0, 0, 0, 0
1746, 17606.2, -1, 82, -0.0433191, -0.216944, 1.76285, 0, -0, -0, 0, 0, 0, 0, 0
1747, 17651.6, -1, 82, -0.0231954, -0.244311, 1.75348, 0, -0, -0, 0, 0, 0, 0, 0
1748, 17698.7, -1, 82, -0.0120951, 0.00863938, 1.77807, 0, -0, -0, 0, 0, 0, 0, 0
1749, 17742.2, -1, 82, -0.0071733, -0.0215374, 1.7983, 0, -0, -0, 0, 0, 0, 0, 0
1750, 17780.2, -1, 82, -0.00436332, -0.0357792, 1.81026, 0, -0, -0, 0, 0, 0, 0, 0
1751, 17818.9, -1, 82, -0.00525344, -0.0341037, 1.81071, 0, -0, -0, 0, 0, 0, 0, 0
1752, 17857.8, -1, 82, -0.0103323, -0.028955, 1.81099, 0, -0, -0, 0, 0, 0, 0, 0
1753, 17895.7, -1, 82, -0.00240855, -0.0357269, 1.81122, 0, -0, -0, 0, 0, 0, 0, 0
1754, 17933.4, -1, 82, -0.00310669, -0.034575, 1.81113, 0, -0, -0, 0, 0, 0, 0, 0
1755, 17971.2, -1, 82, -0.00394444, -0.0328471, 1.81076, 0, -0, -0, 0, 0, 0, 0, 0
1756, 18010.7, -1, 82, -0.0034383, -0.032882, 1.81094, 0, -0, -0, 0, 0, 0, 0, 0
1757, 18051.3, -1, 82, -0.00179769, -0.0335801, 1.81109, 0, -0, -0, 0, 0, 0, 0, 0
1758, 18090.6, -1, 82, -0.00185005, -0.0329693, 1.81106, 0, -0, -0, 0, 0, 0, 0, 0
1759, 18130.9, -1, 82, -0.00254818, -0.0315032, 1.81099, 0, -0, -0, 0, 0, 0, 0, 0
1760, 18176, -1, 82, -0.0021293, -0.0311541, 1.81104, 0, -0, -0, 0, 0, 0, 0, 0
1761, 18223.2, -1, 82, -0.00116937, -0.0310494, 1.81102, 0, -0, -0, 0, 0, 0, 0, 0
1762, 18266.4, -1, 82, -0.00141372, -0.0301418, 1.81108, 0, -0, -0, 0, 0, 0, 0, 0
1763, 18306.6, -1, 82, -0.0015708, -0.0294786, 1.81109, 0, -0, -0, 0, 0, 0, 0, 0
1764, 18351.4, -1, 82, -0.0013439, -0.0291121, 1.81113, 0, -0, -0, 0, 0, 0, 0, 0
1765, 18393.8, -1, 82, -0.000820305, -0.0289027, 1.81118, 0, -0, -0, 0, 0, 0, 0, 0
1766, 18440.6, -1, 82, -0.000715585, -0.0283441, 1.81118, 0, -0, -0, 0, 0, 0, 0, 0
1767, 18487.2, -1, 82, -0.000820305, -0.0273842, 1.81127, 0, -0, -0, 0, 0, 0, 0, 0
1768, 18533.4, -1, 82, -0.000628319, -0.026913, 1.81132, 0, -0, -0, 0, 0, 0, 0, 0
1769, 18572, -1, 82, -0.000314159, -0.026721, 1.81136, 0, -0, -0, 0, 0, 0, 0, 0
1770, 18609.8, -1, 82, -0.000174533, -0.0262847, 1.81137, 0, -0, -0, 0, 0, 0, 0, 0
1771, 18648.5, -1, 82, -0.00020944, -0.0260054, 1.81139, 0, -0, -0, 0, 0, 0, 0, 0
1772, 18687, -1, 82, -0.000296706, -0.0251851, 1.81148, 0, -0, -0, 0, 0, 0, 0, 0
1773, 18725.3, -1, 82, -0.00015708, -0.0248535, 1.81153, 0, -0, -0, 0, 0, 0, 0, 0
1774, 18765.2, -1, 74, 5.23599e-05, -0.0246266, 1.81151, 0, -0, -0, 0, 0, 0, 0, 0
1775, 18810, -1, 74, 0.000122173, -0.0242426, 1.81148, 0, -0, -0, 0, 0, 0, 0, 0
1776, 18856.9, -1, 74, 8.72665e-05, -0.023719, 1.81142, 0, -0, -0, 0, 0, 0, 0, 0
1777, 18901, -1, 74, 0.000139626, -0.0233525, 1.81139, 0, -0, -0, 0, 0, 0, 0, 0
1778, 18942.9, -1, 74, 0.000296706, -0.0230558, 1.81137, 0, -0, -0, 0, 0, 0, 0, 0
1779, 18981.5, -1, 74, 0.000453786, -0.0227242, 1.81132, 0, -0, -0, 0, 0, 0, 0, 0
1780, 19019.7, -1, 74, 0.000506145, -0.0224275, 1.81129, 0, -0, -0, 0, 0, 0, 0, 0
1781, 19061.2, -1, 74, 0.000488692, -0.0221133, 1.81129, 0, -0, -0, 0, 0, 0, 0, 0
1782, 19099.8, -1, 74, 0.000715585, -0.0217817, 1.81127, 0, -0, -0, 0, 0, 0, 0, 0
1783, 19137.9, -1, 74, 0.000925025, -0.0215374, 1.81127, 0, -0, -0, 0, 0, 0, 0, 0
1784, 19175.7, -1, 74, 0.00102974, -0.0212232, 1.81127, 0, -0, -0, 0, 0, 0, 0, 0
