#BEGIN frameIdx[0], TimeInSec[1], FlagAnimationStart[2], batteryPercent[3], Roll[4], Pitch[5], Yaw[6], Vx[7], Vy[8], Vz[9], Vmag[10], Altitude[11], PosLatitude[12], PosLongitude[13], PosElevation[14]
162, 2.253, -1, 64, 0.00141372, -0.0146782, 1.91791, 0, -0, -0, 0, 0, 0, 0, 0
163, 49.956, -1, 64, 0.00141372, -0.0146782, 1.91786, 0, -0, -0, 0, 0, 0, 0, 0
164, 101.372, -1, 64, 0.00151844, -0.0145735, 1.91782, 0, -0, -0, 0, 0, 0, 0, 0
165, 145.55, -1, 64, 0.00165806, -0.014556, 1.91779, 0, -0, -0, 0, 0, 0, 0, 0
166, 183.268, -1, 64, 0.00165806, -0.0146433, 1.91775, 0, -0, -0, 0, 0, 0, 0, 0
167, 222.199, -1, 64, 0.00164061, -0.0146259, 1.91772, 0, -0, -0, 0, 0, 0, 0, 0
168, 263.971, -1, 64, 0.00178024, -0.0145037, 1.91772, 0, -0, -0, 0, 0, 0, 0, 0
169, 303.354, -1, 64, 0.00176278, -0.0145735, 1.91772, 0, -0, -0, 0, 0, 0, 0, 0
170, 344.599, -1, 64, 0.00171042, -0.0146259, 1.9177, 0, -0, -0, 0, 0, 0, 0, 0
171, 384.491, -1, 64, 0.00169297, -0.0146259, 1.91766, 0, -0, -0, 0, 0, 0, 0, 0
172, 424.882, -1, 64, 0.00165806, -0.0146259, 1.91765, 0, -0, -0, 0, 0, 0, 0, 0
173, 469.423, -1, 64, 0.00162316, -0.0146957, 1.91759, 0, -0, -0, 0, 0, 0, 0, 0
174, 510.027, -1, 64, 0.00158825, -0.014748, 1.91754, 0, -0, -0, 0, 0, 0, 0, 0
175, 554.034, -1, 64, 0.00158825, -0.0148178, 1.91752, 0, -0, -0, 0, 0, 0, 0, 0
176, 596.956, -1, 64, 0.0015708, -0.0149226, 1.91749, 0, -0, -0, 0, 0, 0, 0, 0
177, 640.038, -1, 64, 0.00153589, -0.0149749, 1.91747, 0, -0, -0, 0, 0, 0, 0, 0
178, 679.93, -1, 64, 0.00150098, -0.0150622, 1.91745, 0, -0, -0, 0, 0, 0, 0, 0
179, 723.015, -1, 64, 0.00148353, -0.0151495, 1.91742, 0, -0, -0, 0, 0, 0, 0, 0
180, 761.542, -1, 64, 0.00143117, -0.0152193, 1.91738, 0, -0, -0, 0, 0, 0, 0, 0
181, 805.343, -1, 64, 0.00143117, -0.0152018, 1.91735, 0, -0, -0, 0, 0, 0, 0, 0
182, 853.847, -1, 64, 0.00141372, -0.0151669, 1.9173, 0, -0, -0, 0, 0, 0, 0, 0
183, 891.767, -1, 64, 0.00151844, -0.015132, 1.91724, 0, -0, -0, 0, 0, 0, 0, 0
184, 936.792, -1, 64, 0.00148353, -0.0152193, 1.91721, 0, -0, -0, 0, 0, 0, 0, 0
185, 977.668, -1, 64, 0.00146608, -0.0152716, 1.91717, 0, -0, -0, 0, 0, 0, 0, 0
186, 1026.66, -1, 64, 0.00143117, -0.0153589, 1.91709, 0, -0, -0, 0, 0, 0, 0, 0
187, 1069.72, -1, 64, 0.00141372, -0.0153065, 1.91705, 0, -0, -0, 0, 0, 0, 0, 0
188, 1120.95, -1, 64, 0.00137881, -0.0153589, 1.91703, 0, -0, -0, 0, 0, 0, 0, 0
189, 1167.81, -1, 64, 0.0013439, -0.0154462, 1.91695, 0, -0, -0, 0, 0, 0, 0, 0
190, 1217.32, -1, 64, 0.001309, -0.0154113, 1.91691, 0, -0, -0, 0, 0, 0, 0, 0
191, 1261.51, -1, 64, 0.00127409, -0.0154636, 1.91688, 0, -0, -0, 0, 0, 0, 0, 0
192, 1311.91, -1, 64, 0.00127409, -0.0154113, 1.91679, 0, -0, -0, 0, 0, 0, 0, 0
193, 1358.63, -1, 64, 0.001309, -0.0153414, 1.91676, 0, -0, -0, 0, 0, 0, 0, 0
194, 1397.44, -1, 64, 0.00127409, -0.0154287, 1.91669, 0, -0, -0, 0, 0, 0, 0, 0
195, 1407.83, -1, 64, 0.00129154, -0.0154462, 1.91667, 0, -0, -0, 0, 0, 0, 0, 0
196, 1447.53, -1, 64, 0.00129154, -0.0154811, 1.91667, 0, -0, -0, 0, 0, 0, 0, 0
197, 1494.09, -1, 64, 0.00127409, -0.0155683, 1.91663, 0, -0, -0, 0, 0, 0, 0, 0
198, 1543.89, -1, 64, 0.00129154, -0.0155858, 1.91658, 0, -0, -0, 0, 0, 0, 0, 0
199, 1590.63, -1, 64, 0.00125664, -0.0156556, 1.91653, 0, -0, -0, 0, 0, 0, 0, 0
200, 1637.07, -1, 64, 0.00127409, -0.0156207, 1.91648, 0, -0, -0, 0, 0, 0, 0, 0
201, 1685.4, -1, 64, 0.00132645, -0.0156207, 1.91646, 0, -0, -0, 0, 0, 0, 0, 0
202, 1729.51, -1, 64, 0.00127409, -0.0156731, 1.91642, 0, -0, -0, 0, 0, 0, 0, 0
203, 1776.99, -1, 64, 0.00127409, -0.0156032, 1.91641, 0, -0, -0, 0, 0, 0, 0, 0
204, 1821.91, -1, 64, 0.00125664, -0.0155858, 1.91635, 0, -0, -0, 0, 0, 0, 0, 0
205, 1864.42, -1, 64, 0.00123918, -0.0156032, 1.91634, 0, -0, -0, 0, 0, 0, 0, 0
206, 1909.07, -1, 64, 0.00120428, -0.0155683, 1.91628, 0, -0, -0, 0, 0, 0, 0, 0
207, 1955.39, -1, 64, 0.00120428, -0.0155683, 1.91625, 0, -0, -0, 0, 0, 0, 0, 0
208, 1995.49, -1, 64, 0.00116937, -0.0156556, 1.91621, 0, -0, -0, 0, 0, 0, 0, 0
209, 2035.34, -1, 64, 0.00113446, -0.0156905, 1.91618, 0, -0, -0, 0, 0, 0, 0, 0
210, 2075.99, -1, 64, 0.00113446, -0.0156731, 1.91616, 0, -0, -0, 0, 0, 0, 0, 0
211, 2113.99, -1, 64, 0.00111701, -0.015708, 1.91609, 0, -0, -0, 0, 0, 0, 0, 0
212, 2151.82, -1, 64, 0.00113446, -0.0157603, 1.91606, 0, -0, -0, 0, 0, 0, 0, 0
213, 2189.55, -1, 64, 0.00111701, -0.015865, 1.91602, 0, -0, -0, 0, 0, 0, 0, 0
214, 2228.33, -1, 64, 0.00109956, -0.0158999, 1.91599, 0, -0, -0, 0, 0, 0, 0, 0
215, 2266.85, -1, 64, 0.00106465, -0.0159698, 1.91597, 0, -0, -0, 0, 0, 0, 0, 0
216, 2305.33, -1, 64, 0.00115192, -0.0156905, 1.9159, -0.00693111, 5.68887e-05, 0, 0.00693134, 0, 0, 0, 0
217, 2343.87, -1, 64, 0.00116937, -0.0154113, 1.9159, -0.00728514, -0.000487743, 0, 0.00730145, 0, 0, 0, 0
218, 2381.76, -1, 64, 0.00116937, -0.0152891, 1.91588, -0.00717576, -0.000539725, 0, 0.00719603, 0, 0, 0, 0
219, 2420.52, -1, 64, 0.00116937, -0.0148877, 1.91585, -0.00723571, -0.000577143, 0, 0.00725869, 0, 0, 0, 0
220, 2459.22, -1, 64, 0.00116937, -0.0146084, 1.91581, -0.00709824, -0.000581551, 0, 0.00712202, 0, 0, 0, 0
221, 2497.8, -1, 64, 0.00116937, -0.0140324, 1.91576, -0.00780451, -0.000572002, 0, 0.00782545, 0, 0, 0, 0
222, 2535.73, -1, 64, 0.00115192, -0.0135787, 1.91571, -0.00779492, -0.000570417, 0, 0.00781576, 0, 0, 0, 0
223, 2573.38, -1, 64, 0.00116937, -0.0132645, 1.91569, -0.00676765, -0.000587303, 0, 0.00679309, 0, 0, 0, 0
224, 2610.98, -1, 64, 0.00116937, -0.0128805, 1.91564, -0.00696339, -0.00057448, 0, 0.00698704, 0, 0, 0, 0
225, 2648.64, -1, 64, 0.00118682, -0.0124442, 1.91559, -0.00671074, -0.000582899, 0, 0.00673601, 0, 0, 0, 0
226, 2689.87, -1, 64, 0.00120428, -0.0121999, 1.91555, -0.00634651, -0.000594406, 0, 0.00637429, 0, 0, 0, 0
227, 2736.34, -1, 64, 0.00120428, -0.0117112, 1.9155, -0.00604312, -0.000577171, 0, 0.00607062, 0, 0, 0, 0
228, 2781.54, -1, 64, 0.00115192, -0.0113097, 1.91573, -0.00591135, -0.000696855, 0, 0.00595228, 0, 0, 0, 0
229, 2824.52, -1, 64, 0.000994838, -0.0110305, 1.91552, -0.00579642, -0.00173327, 0, 0.00605002, 0, 0, 0, 0
230, 2862.1, -1, 64, 0.000942478, -0.0106116, 1.91609, -0.00606852, -0.000716064, 0, 0.00611062, 0, 0, 0, 0
231, 2899.83, -1, 64, 0.000715585, -0.0101404, 1.91623, -0.00669257, -0.000860106, 0, 0.00674762, 0, 0, 0, 0
232, 2938.03, -1, 64, 0.000750492, -0.00977384, 1.91677, -0.00614022, -0.000369847, 0, 0.00615135, 0, 0, 0, 0
233, 2975.62, -1, 64, 0.000767945, -0.00963422, 1.9167, -0.00577469, -0.000384862, 0, 0.0057875, 0, 0, 0, 0
234, 3015.34, -1, 64, 0.000837758, -0.00914553, 1.91672, -0.00520688, 2.13032e-05, 0, 0.00520693, 0, 0, 0, 0
235, 3053.16, -1, 64, 0.000837758, -0.00890118, 1.91672, -0.00474605, 0.000201194, 0, 0.00475031, 0, 0, 0, 0
236, 3093.89, -1, 64, 0.000925025, -0.00869174, 1.91663, -0.00503738, -6.91567e-06, 0, 0.00503738, 0, 0, 0, 0
237, 3134.21, -1, 64, 0.000907571, -0.00832522, 1.91663, -0.00473542, -3.62274e-06, 0, 0.00473543, 0, 0, 0, 0
238, 3175.84, -1, 64, 0.000959931, -0.00811578, 1.91655, -0.00399804, -0.000187862, 0, 0.00400245, 0, 0, 0, 0
239, 3221.21, -1, 64, 0.000872665, -0.00788889, 1.91648, -0.00378938, -0.000727954, 0, 0.00385867, 0, 0, 0, 0
240, 3265.58, -1, 64, 0.000750492, -0.00752237, 1.91662, -0.00425514, -0.0011127, 0, 0.00439822, 0, 0, 0, 0
241, 3309.62, -1, 64, 0.000767945, -0.00729548, 1.91649, -0.00403909, -0.00126426, 0, 0.00423233, 0, 0, 0, 0
242, 3350.01, -1, 64, 0.000785398, -0.00701622, 1.91646, -0.00392246, -0.000908831, 0, 0.00402637, 0, 0, 0, 0
243, 3392.55, -1, 64, 0.000785398, -0.00682424, 1.91627, -0.00410478, -0.000675928, 0, 0.00416006, 0, 0, 0, 0
244, 3434.39, -1, 64, 0.000767945, -0.00652753, 1.91627, -0.00327135, -0.000776168, 0, 0.00336216, 0, 0, 0, 0
245, 3477.37, -1, 64, 0.000733038, -0.00577704, 1.91653, -0.00531754, -0.000696587, 0, 0.00536297, 0, 0, 0, 0
246, 3524.56, -1, 64, 0.000785398, -0.00570723, 1.91655, -0.0028966, -0.000449636, 0, 0.00293129, 0, 0, 0, 0
247, 3571.07, -1, 64, 0.000663225, -0.00527089, 1.91646, -0.00304323, -0.000796683, 0, 0.00314578, 0, 0, 0, 0
248, 3613.64, -1, 64, 0.000855211, -0.00535816, 1.91627, -0.00235132, -3.42337e-05, 0, 0.00235157, 0, 0, 0, 0
249, 3660.56, -1, 64, 0.000820305, -0.00481711, 1.91627, -0.00328029, 0.000162706, 0, 0.00328433, 0, 0, 0, 0
250, 3706.68, -1, 64, 0.000942478, -0.00514872, 1.91621, -0.0014202, -6.23628e-05, 0, 0.00142157, 0, 0, 0, 0
251, 3751.66, -1, 64, 0.000925025, -0.00471239, 1.91653, -0.00271202, -0.000206714, 0, 0.00271989, 0, 0, 0, 0
252, 3801.96, -1, 64, 0.000872665, -0.00410152, 1.91642, -0.00347693, -0.000263194, 0, 0.00348687, 0, 0, 0, 0
253, 3845.13, -1, 64, 0.000872665, -0.00376991, 1.91662, -0.00351359, -0.000662585, 0, 0.00357552, 0, 0, 0, 0
254, 3889.53, -1, 64, 0.000855211, -0.00406662, 1.91681, -0.0012928, -0.000734487, 0, 0.00148688, 0, 0, 0, 0
255, 3933.11, -1, 64, 0.000907571, -0.00378736, 1.91712, -0.0019966, -8.09629e-05, 0, 0.00199824, 0, 0, 0, 0
256, 3980.33, -1, 64, 0.000907571, -0.00350811, 1.91735, -0.00161852, 0.00012994, 0, 0.00162373, 0, 0, 0, 0
257, 4027.08, -1, 64, 0.000994838, -0.00368264, 1.91777, -0.00196416, -0.00019614, 0, 0.00197392, 0, 0, 0, 0
258, 4069.57, -1, 64, 0.000977384, -0.00328122, 1.91787, -0.0018775, -0.000219046, 0, 0.00189024, 0, 0, 0, 0
259, 4116.69, -1, 64, 0.0010472, -0.00314159, 1.91759, -0.00149284, 5.96872e-06, 0, 0.00149286, 0, 0, 0, 0
260, 4165.94, -1, 64, 0.00123918, -0.00287979, 1.91786, -0.00226866, -0.000243003, 0, 0.00228163, 0, 0, 0, 0
261, 4208.33, -1, 64, 0.00120428, -0.00289725, 1.9177, -0.000698236, 0.000418535, 0, 0.000814067, 0, 0, 0, 0
262, 4256.07, -1, 64, 0.0016057, -0.00216421, 1.91749, -0.00186055, 0.000145329, 0, 0.00186622, 0, 0, 0, 0
263, 4304.36, -1, 64, 0.00113446, -0.00211185, 1.92021, -0.00170616, -0.000172137, 0, 0.00171483, 0, 0, 0, 0
264, 4348.22, -1, 64, 0.0013439, -0.000925025, 1.921, -0.00311998, -1.39924e-05, 0, 0.00312001, 0, 0, 0, 0
265, 4396.23, -1, 64, 0.00129154, -0.00200713, 1.92388, -0.00223561, -0.00128893, 0, 0.00258056, 0, 0, 0, 0
266, 4441.41, -1, 64, 0.00200713, -0.00144862, 1.92461, -0.00153176, 0.000848013, 0, 0.00175083, 0, 0, 0, 0
267, 4488.34, -1, 64, 0.00165806, -0.00181514, 1.92471, -4.44463e-05, 0.000662226, 0, 0.000663716, 0, 0, 0, 0
268, 4534.32, -1, 64, 0.00137881, -0.000541052, 1.92779, -0.00206679, -0.00482716, 0, 0.00525101, 0, 0, 0, 0
269, 4574.65, -1, 64, 0.00233874, -0.00345575, 1.92838, -0.0011792, 2.29241e-05, 0, 0.00117943, 0, 0, 0, 0
270, 4613.4, -1, 64, 0.000890118, 0.00225147, 1.92887, -0.00252973, -0.00229997, 0, 0.00341897, 0, 0, 0, 0
271, 4652.05, -1, 64, 0.000750492, 0.000488692, 1.92709, -0.00184772, -0.00135055, 0, 0.00228868, 0, 0, 0, 0
272, 4690.48, -1, 64, 0.00301942, -0.00185005, 1.92526, 0.00123904, -0.00298414, 0, 0.00323115, 0, 0, 0, 0
273, 4728.68, -1, 64, -0.000837758, -0.000733038, 1.92433, -0.00483225, -0.000706597, 0, 0.00488364, 0, 0, 0, 0
274, 4772.53, -1, 64, 0.00172788, 0.00162316, 1.92321, 0.001078, -0.00125592, 0, 0.00165512, 0, 0, 0, 0
275, 4814.68, -1, 64, 0.000820305, -0.00600393, 1.92246, -0.00634981, -0.000482516, 0, 0.00636812, 0, 0, 0, 0
276, 4853.52, -1, 64, 0.00106465, -0.00226893, 1.92086, -0.00548579, 0.00205463, 0, 0.00585794, 0, 0, 0, 0
277, 4892.37, -1, 64, 0.0104371, 0.00228638, 1.91941, -0.00208609, -0.0023021, 0, 0.00310668, 0, 0, 0, 0
278, 4932.95, -1, 64, 0.0126013, 0.000261799, 1.91873, -0.00261843, -0.00494279, 0, 0.0055935, 0, 0, 0, 0
279, 4971.59, -1, 64, 0.00431096, -0.00401426, 1.91765, -0.00370885, -0.00247126, 0, 0.00445676, 0, 0, 0, 0
280, 5009.93, -1, 64, -0.00010472, -0.00719076, 1.91618, -0.00456051, -0.000855555, 0, 0.00464007, 0, 0, 0, 0
281, 5048.18, -1, 64, 0.00230383, -0.0082205, 1.91534, -0.00527442, -0.00228396, 0, 0.0057477, 0, 0, 0, 0
282, 5085.9, -1, 64, 0.00575959, -0.00593412, 1.91421, -0.00555257, -0.00247242, 0, 0.00607815, 0, 0, 0, 0
283, 5126.76, -1, 64, 0.00506145, -0.00462512, 1.91353, -0.00310208, -0.00374304, 0, 0.0048614, 0, 0, 0, 0
284, 5174.56, -1, 64, -0.00553269, -0.00623083, 1.91328, -0.00351671, -0.000138785, 0, 0.00351945, 0, 0, 0, 0
285, 5221.84, -1, 64, -0.0129154, -0.00750492, 1.91255, -0.001625, 0.00252192, 0, 0.00300012, 0, 0, 0, 0
286, 5265.53, -1, 64, -0.0245742, -0.00551524, 1.91255, -0.0048016, 0.00754288, 0, 0.0089415, 0, 0, 0, 0
287, 5311.9, -1, 64, -0.0307527, 0.000802851, 1.91237, -0.00317686, 0.0133915, 0, 0.0137632, 0, 0, 0, 0
288, 5356.2, -1, 64, -0.0181514, 0.00560251, 1.91365, -0.0023441, 0.0107996, 0, 0.0110511, 0, 0, 0, 0
289, 5402.35, -1, 64, -0.0129329, 0.00972148, 1.91381, 0.000593321, 0.00907975, 0, 0.00909912, 0, 0, 0, 0
290, 5445.43, -1, 64, -0.00445059, 0.00734784, 1.91424, 0.00210544, 0.00693615, 0, 0.00724866, 0, 0, 0, 0
291, 5488.99, -1, 64, 6.98132e-05, -0.000506145, 1.79806, -0.000264977, 0.00339783, 1.69352e-12, 0.00340815, 0, 0, 0, 0
292, 5534.41, -1, 64, 0.00106465, -0.00453786, 1.79821, -0.00130029, 0.000848861, 0.00102052, 0.00185817, 0.279, 0, 0, 0
293, 5572.26, -1, 64, 0, -0.00633555, 1.79821, -0.0428171, -0.000349324, 0.0930557, 0.102434, 0.306, 0, 0, 0
294, 5617.12, -1, 64, 0.000645772, -0.00472984, 1.79769, -0.0911086, -0.000275181, 0.76721, 0.7726, 0.342, 0, 0, 0
295, 5661.1, -1, 64, 0.00165806, -0.00146608, 1.79753, -0.0576718, 0.0154361, 0.967971, 0.96981, 0.383, 0, 0, 0
296, 5707.31, -1, 64, 0.00289725, 0.00520108, 1.79668, -0.0823631, 0.0477197, 0.950689, 0.955442, 0.447, 0, 0, 0
297, 5750.84, -1, 64, 0.00450295, 0.00694641, 1.79617, -0.0461339, 0.04591, 0.960047, 0.96225, 0.482, 0, 0, 0
298, 5798.86, -1, 64, 0.00836013, 0.00856957, 1.79549, -0.00925027, 0.0385149, 0.912877, 0.913736, 0.539, 0, 0, 0
299, 5836.74, -1, 64, 0.00968658, 0.00685914, 1.79516, -0.0420381, 0.0444271, 0.89494, 0.897027, 0.575, 0, 0, 0
300, 5878.58, -1, 64, 0.0110479, 0.00511381, 1.79472, -0.0316675, 0.048971, 0.863616, 0.865583, 0.611, 0, 0, 0
301, 5922.07, -1, 64, 0.012514, 0.00516617, 1.7945, -0.0495506, 0.0751963, 0.843563, 0.848356, 0.651, 0, 0, 0
302, 5970.7, -1, 64, 0.0149226, 0.00588176, 1.79413, -0.0245126, 0.118123, 0.825761, 0.834527, 0.692, 0, 0, 0
303, 6019.05, -1, 64, 0.0197397, 0.00820305, 1.79397, -0.0509108, 0.0977856, 0.80122, 0.808769, 0.726, 0, 0, 0
304, 6066.92, -1, 64, 0.0241554, 0.0110479, 1.79378, -0.0738147, 0.0817517, 0.737465, 0.745645, 0.759, 0, 0, 0
305, 6109.87, -1, 64, 0.0251327, 0.0137183, 1.79341, -0.0901374, 0.0927346, 0.558127, 0.572914, 0.788, 0, 0, 0
306, 6152.38, -1, 64, 0.0250629, 0.0174009, 1.79348, -0.079278, 0.0969831, 0.407836, 0.426639, 0.81, 0, 0, 0
307, 6199.19, -1, 64, 0.0257611, 0.0218166, 1.79333, -0.071766, 0.0971212, 0.260497, 0.287126, 0.829, 0, 0, 0
308, 6244.45, -1, 64, 0.0263545, 0.0253247, 1.79371, -0.0909047, 0.0746075, 0.117766, 0.16643, 0.843, 0, 0, 0
309, 6286.56, -1, 64, 0.0257436, 0.0261974, 1.79355, -0.077453, 0.0635119, 0.0517278, 0.112732, 0.852, 0, 0, 0
310, 6327.11, -1, 64, 0.0233351, 0.0276984, 1.79401, -0.119811, 0.0400966, -0.0373699, 0.131753, 0.855, 0, 0, 0
311, 6368.75, -1, 64, 0.0198095, 0.0293041, 1.79409, -0.070602, 0.0337807, -0.102917, 0.129297, 0.853, 0, 0, 0
312, 6410.35, -1, 64, 0.015865, 0.0300197, 1.79439, -0.0531086, 0.0360442, -0.152645, 0.16559, 0.848, 0, 0, 0
313, 6448.15, -1, 64, 0.0135088, 0.0275064, 1.79451, -0.0530665, 0.0349355, -0.18879, 0.199194, 0.839, 0, 0, 0
314, 6491.78, -1, 64, 0.0130202, 0.0239285, 1.7943, -0.0383402, 0.0423287, -0.237401, 0.244174, 0.823, 0, 0, 0
315, 6536.67, -1, 64, 0.0119206, 0.0214501, 1.79456, -0.0524785, 0.0494536, -0.233026, 0.243928, 0.811, 0, 0, 0
316, 6584.2, -1, 64, 0.010821, 0.0206822, 1.7946, -0.047202, 0.0406581, -0.232434, 0.240638, 0.799, 0, 0, 0
317, 6636.44, -1, 64, 0.00853466, 0.0201411, 1.7945, -0.0285836, -0.00217581, -0.20712, 0.209094, 0.785, 0, 0, 0
318, 6680.22, -1, 64, 0.00485202, 0.0176278, 1.79458, -0.0241706, -0.0124624, -0.178785, 0.180842, 0.773, 0, 0, 0
319, 6724.05, -1, 64, 0.000244346, 0.0161268, 1.79434, -0.0088341, -0.00836273, -0.154682, 0.155159, 0.761, 0, 0, 0
320, 6774.9, -1, 64, -0.00279253, 0.0150098, 1.79422, -0.0129378, -0.0151673, -0.129407, 0.130933, 0.755, 0, 0, 0
321, 6818.02, -1, 64, -0.00513127, 0.0122348, 1.79436, -0.00908851, -0.0184225, -0.0951747, 0.0973664, 0.747, 0, 0, 0
322, 6869.54, -1, 64, -0.00720821, 0.0114494, 1.79423, -0.0102049, -0.0176394, -0.0688202, 0.071774, 0.742, 0, 0, 0
323, 6917.91, -1, 64, -0.00961676, 0.0118857, 1.7943, -0.0134408, -0.012298, -0.0406657, 0.04456, 0.738, 0, 0, 0
324, 6961.73, -1, 64, -0.0103323, 0.012322, 1.79443, -0.0154029, -0.00798029, -0.0224314, 0.0283567, 0.736, 0, 0, 0
325, 7008.09, -1, 64, -0.0104371, 0.0119381, 1.79455, -0.0106305, -0.0089853, -0.00372691, 0.0144095, 0.736, 0, 0, 0
326, 7051.45, -1, 64, -0.00940732, 0.0115017, 1.79477, -0.0148471, -0.00146281, 0.0113631, 0.0187535, 0.736, 0, 0, 0
327, 7091.48, -1, 64, -0.00836013, 0.0102974, 1.79441, -0.0168672, 0.00639713, 0.0238053, 0.0298684, 0.738, 0, 0, 0
328, 7129.5, -1, 64, -0.00677188, 0.00989602, 1.79498, -0.00950284, 0.0140679, 0.0251975, 0.0303829, 0.739, 0, 0, 0
329, 7151.88, -1, 64, -0.00593412, 0.00980875, 1.79502, -0.0122722, 0.0198821, 0.0300408, 0.0380572, 0.741, 0, 0, 0
330, 7190.11, -1, 64, -0.00347321, 0.00954695, 1.79488, -0.00602413, 0.0249241, 0.0449126, 0.0517169, 0.746, 0, 0, 0
331, 7228.59, -1, 64, -0.000261799, 0.00921534, 1.79533, -0.00740731, 0.0213991, 0.0314022, 0.0387154, 0.746, 0, 0, 0
332, 7266.45, -1, 64, 0.00164061, 0.00881391, 1.79533, -0.010244, 0.0186008, 0.0276361, 0.0348523, 0.748, 0, 0, 0
333, 7304.97, -1, 64, 0.00305433, 0.00806342, 1.79528, -0.00413939, 0.0170163, 0.0237693, 0.029524, 0.75, 0, 0, 0
334, 7342.78, -1, 64, 0.00345575, 0.00760964, 1.79533, 0.00130263, 0.0188598, 0.0184313, 0.0264026, 0.75, 0, 0, 0
335, 7380.66, -1, 64, 0.00385718, 0.00677188, 1.79535, 0.00764029, 0.0216065, 0.00952119, 0.0248167, 0.75, 0, 0, 0
336, 7419.4, -1, 64, 0.0044855, 0.00617847, 1.79542, 0.00632866, 0.019671, 0.00512919, 0.0212911, 0.75, 0, 0, 0
337, 7457.1, -1, 64, 0.00511381, 0.00520108, 1.79549, 0.0238221, 0.0325944, 0.00494636, 0.0406738, 0.751, 0, 0, 0
338, 7495.01, -1, 64, 0.00570723, 0.003735, 1.79547, 0.0143311, 0.0203082, -0.00291141, 0.0250256, 0.75, 0, 0, 0
339, 7532.85, -1, 64, 0.00654498, 0.00233874, 1.79552, 0.0248555, 0.0277171, -0.00828815, 0.0381409, 0.748, 0, 0, 0
340, 7571.49, -1, 64, 0.00678933, 0.00205949, 1.79551, 0.0223103, 0.025041, -0.0130048, 0.0359712, 0.746, 0, 0, 0
341, 7609.56, -1, 64, 0.00666716, 0.000680678, 1.7957, 0.0169171, 0.0167543, -0.00502158, 0.0243333, 0.745, 0, 0, 0
342, 7648.28, -1, 64, 0.00631809, -3.49066e-05, 1.79568, 0.00941186, 0.0114088, -0.000798408, 0.0148115, 0.745, 0, 0, 0
343, 7652.6, -1, 64, 0.00626573, -0.000366519, 1.79584, 0.0141844, 0.00751127, 0.000691146, 0.0160653, 0.745, 0, 0, 0
344, 7688.91, -1, 64, 0.00595157, -0.000541052, 1.7958, 0.0110762, 0.00645477, 0.000398852, 0.012826, 0.744, 0, 0, 0
345, 7714.95, -1, 64, 0.00563741, -0.000802851, 1.79594, 0.0106711, 0.00711788, -0.00729296, 0.0147554, 0.742, 0, 0, 0
346, 7745.52, -1, 64, 0.00513127, -0.001309, 1.79624, 0.0116201, 0.00255098, -0.0103053, 0.0157395, 0.74, 0, 0, 0
347, 7778.41, -1, 64, 0.00438078, -0.00165806, 1.796, 0.00877588, -0.000193574, -0.00257737, 0.00914857, 0.74, 0, 0, 0
348, 7805.93, -1, 64, 0.00366519, -0.00219911, 1.79615, 0.00445736, 0.00521035, -0.00381679, 0.00784752, 0.738, 0, 0, 0
349, 7835.63, -1, 64, 0.00347321, -0.00263545, 1.7964, 0.00847134, 0.000208572, 0.00178731, 0.00866034, 0.738, 0, 0, 0
350, 7869.06, -1, 64, 0.00357792, -0.00277507, 1.79648, 0.00396362, 0.0021536, -0.00070183, 0.00456518, 0.735, 0, 0, 0
351, 7898.08, -1, 64, 0.00359538, -0.0026529, 1.79648, -0.000770731, 0.00283712, 0.00542533, 0.00617069, 0.735, 0, 0, 0
352, 7925.25, -1, 64, 0.00375246, -0.00256563, 1.79661, -0.00556196, 0.00528406, 0.0138497, 0.0158326, 0.736, 0, 0, 0
353, 7961.8, -1, 64, 0.00431096, -0.00214675, 1.79682, -0.00714897, 0.00416808, 0.00906014, 0.0122706, 0.733, 0, 0, 0
354, 7991.29, -1, 64, 0.00427606, -0.00158825, 1.79676, -0.0035658, 0.00363642, 0.0134377, 0.0143704, 0.733, 0, 0, 0
355, 8017.38, -1, 64, 0.00439823, -0.000785398, 1.79694, -0.00634954, 0.00444176, 0.0181648, 0.0197485, 0.733, 0, 0, 0
356, 8047.45, -1, 64, 0.00436332, -0.000575959, 1.79737, 0.0012262, 0.0034203, 0.0181916, 0.0185509, 0.732, 0, 0, 0
357, 8080.29, -1, 64, 0.00315905, -0.00109956, 1.79704, -0.00460473, -0.000134572, 0.0237026, 0.0241461, 0.732, 0, 0, 0
358, 8108.13, -1, 64, 0.000436332, -0.00207694, 1.79708, -0.00813376, -0.00262237, 0.0214058, 0.0230487, 0.732, 0, 0, 0
359, 8139.57, -1, 64, -0.00321141, -0.00415388, 1.79734, -0.00820352, 0.000506978, 0.026724, 0.0279594, 0.732, 0, 0, 0
360, 8170.01, -1, 64, -0.00575959, -0.00680678, 1.79708, -0.00953706, 0.00232462, 0.0276151, 0.0293079, 0.732, 0, 0, 0
361, 8204.71, -1, 64, -0.00719076, -0.00872665, 1.79722, -0.0200427, 0.00257606, 0.0289972, 0.0353437, 0.733, 0, 0, 0
362, 8230.83, -1, 64, -0.00745256, -0.00963422, 1.7972, -0.0331176, 0.00779537, 0.0366713, 0.0500233, 0.735, 0, 0, 0
363, 8261.61, -1, 64, -0.00738274, -0.00998328, 1.79734, -0.0252814, 0.00868986, 0.0275609, 0.0383962, 0.734, 0, 0, 0
364, 8292.59, -1, 64, -0.0069115, -0.00944223, 1.79765, -0.0218629, 0.0104515, 0.0301794, 0.0387042, 0.735, 0, 0, 0
365, 8327.72, -1, 64, -0.00719076, -0.00851721, 1.79776, -0.0281737, 0.00991345, 0.0319181, 0.0437127, 0.736, 0, 0, 0
366, 8353.55, -1, 64, -0.00741765, -0.0082205, 1.79774, -0.0344346, 0.0110006, 0.0277877, 0.045595, 0.736, 0, 0, 0
367, 8387.11, -1, 64, -0.00773181, -0.00708604, 1.79788, -0.0453966, 0.0140814, 0.029137, 0.0557504, 0.737, 0, 0, 0
368, 8418.18, -1, 64, -0.00736529, -0.00574213, 1.79807, -0.0409558, 0.0168533, 0.0289472, 0.0529089, 0.738, 0, 0, 0
369, 8449.54, -1, 64, -0.00724312, -0.0039619, 1.79813, -0.0488279, 0.0234434, 0.0312243, 0.0625197, 0.74, 0, 0, 0
370, 8480.26, -1, 64, -0.00621337, -0.0026529, 1.79861, -0.0621276, 0.0227261, 0.0215774, 0.0695837, 0.738, 0, 0, 0
371, 8508.5, -1, 64, -0.00567232, -0.00204204, 1.79889, -0.0684209, 0.0189171, 0.0225045, 0.0744696, 0.739, 0, 0, 0
372, 8542.58, -1, 64, -0.00438078, -0.000314159, 1.79833, -0.0608777, 0.0221903, 0.0207179, 0.0680275, 0.74, 0, 0, 0
373, 8572.4, -1, 64, -0.00354302, 0.00198968, 1.79884, -0.0724203, 0.0322539, 0.00417155, 0.0793878, 0.737, 0, 0, 0
374, 8599.67, -1, 64, -0.00411898, 0.00657989, 1.7987, -0.072447, 0.0292172, 0.00198672, 0.0781419, 0.736, 0, 0, 0
375, 8634.04, -1, 64, -0.005044, 0.0151844, 1.79886, -0.0581825, 0.0217416, 0.00735136, 0.0625455, 0.737, 0, 0, 0
376, 8660.12, -1, 64, -0.00561996, 0.0229511, 1.79895, -0.0504466, 0.0282336, 0.00742389, 0.0582847, 0.737, 0, 0, 0
377, 8694.59, -1, 64, -0.00612611, 0.0328122, 1.79875, -0.0469365, 0.0267763, -0.00174643, 0.0540652, 0.736, 0, 0, 0
378, 8721.67, -1, 64, -0.00624828, 0.0423417, 1.79888, -0.043053, 0.021364, -0.00808863, 0.0487381, 0.734, 0, 0, 0
379, 8752.11, -1, 64, -0.00616101, 0.0530929, 1.7987, -0.0270795, 0.0214127, -0.00725182, 0.0352759, 0.733, 0, 0, 0
380, 8787.76, -1, 64, -0.00551524, 0.0628144, 1.79867, -0.0149832, 0.0252177, -0.00294519, 0.0294805, 0.733, 0, 0, 0
381, 8814.07, -1, 64, -0.00513127, 0.0677537, 1.7983, -0.00437362, 0.0280587, -0.00110002, 0.0284188, 0.733, 0, 0, 0
382, 8844.82, -1, 64, -0.00441568, 0.0753633, 1.79821, 0.0131713, 0.0279414, -0.00558073, 0.0313903, 0.732, 0, 0, 0
383, 8881.89, -1, 64, -0.00401426, 0.0836885, 1.79802, 0.0297756, 0.0381728, -0.00105378, 0.0484238, 0.732, 0, 0, 0
384, 8909.24, -1, 64, -0.00415388, 0.0861145, 1.79786, 0.0323722, 0.039439, -0.010716, 0.0521367, 0.73, 0, 0, 0
385, 8936.67, -1, 64, -0.00385718, 0.0904604, 1.79776, 0.0530859, 0.0328706, -0.00611773, 0.0627376, 0.729, 0, 0, 0
386, 8967.73, -1, 64, -0.0045204, 0.0935671, 1.79764, 0.0616428, 0.0270056, -0.00917561, 0.0679215, 0.728, 0, 0, 0
387, 8999.34, -1, 64, -0.00553269, 0.0972323, 1.79746, 0.089011, 0.0296057, 0.00957542, 0.0942928, 0.731, 0, 0, 0
388, 9028.83, -1, 64, -0.00596903, 0.0984715, 1.7975, 0.108607, 0.0326428, 0.0128517, 0.114133, 0.731, 0, 0, 0
389, 9064.91, -1, 64, -0.00551524, 0.0987856, 1.79744, 0.138138, 0.0447216, 0.0142369, 0.145893, 0.732, 0, 0, 0
390, 9089.46, -1, 64, -0.00575959, 0.0989078, 1.79718, 0.166452, 0.0559117, 0.0151408, 0.176243, 0.732, 0, 0, 0
391, 9120.03, -1, 64, -0.0055676, 0.0988729, 1.79713, 0.18803, 0.0593028, 0.00916751, 0.197373, 0.731, 0, 0, 0
392, 9151.07, -1, 64, -0.00520108, 0.0983493, 1.79718, 0.2171, 0.0673772, 0.038622, 0.230573, 0.737, 0, 0, 0
393, 9181.16, -1, 64, -0.00493928, 0.0982097, 1.79696, 0.241426, 0.0635265, 0.035701, 0.252184, 0.738, 0, 0, 0
394, 9211.05, -1, 64, -0.00445059, 0.0976686, 1.79694, 0.271419, 0.0725767, 0.024255, 0.282, 0.737, 0, 0, 0
395, 9241.42, -1, 64, -0.00404916, 0.0976163, 1.79717, 0.303776, 0.0815514, 0.00586636, 0.314587, 0.734, 0, 0, 0
396, 9271.17, -1, 64, -0.00387463, 0.0976163, 1.79697, 0.309109, 0.0840206, 0.00725708, 0.320407, 0.734, 0, 0, 0
397, 9302, -1, 64, -0.00338594, 0.0976163, 1.79687, 0.354771, 0.0872069, 0.00596611, 0.365381, 0.734, 0, 0, 0
398, 9332.07, -1, 64, -0.00284489, 0.0974068, 1.79696, 0.368072, 0.0951193, 0.00721342, 0.380232, 0.734, 0, 0, 0
399, 9362.79, -1, 64, -0.00228638, 0.096412, 1.79661, 0.384092, 0.089243, -0.00484947, 0.394353, 0.731, 0, 0, 0
400, 9393.14, -1, 64, -0.00188496, 0.0953473, 1.79647, 0.412963, 0.0918301, -2.39372e-05, 0.42305, 0.731, 0, 0, 0
401, 9423.31, -1, 64, -0.00158825, 0.0944049, 1.79648, 0.424267, 0.0914827, 0.00209181, 0.434023, 0.731, 0, 0, 0
402, 9453.31, -1, 64, -0.000802851, 0.0933402, 1.79629, 0.455046, 0.081301, 0.0192563, 0.462653, 0.734, 0, 0, 0
403, 9483.78, -1, 64, -0.000453786, 0.0926944, 1.79593, 0.481461, 0.0859203, 0.020984, 0.489517, 0.735, 0, 0, 0
404, 9514.36, -1, 64, -0.00020944, 0.0916123, 1.7954, 0.507449, 0.0904703, 0.01365, 0.515631, 0.735, 0, 0, 0
405, 9544.8, -1, 64, -0.000331613, 0.0910538, 1.7954, 0.500144, 0.08925, 0.0141027, 0.50824, 0.735, 0, 0, 0
406, 9575.16, -1, 64, -0.000314159, 0.090792, 1.79561, 0.537316, 0.0991534, 0.00369906, 0.546401, 0.733, 0, 0, 0
407, 9605.25, -1, 64, -0.000401426, 0.0899717, 1.79504, 0.561138, 0.103497, 0.00581896, 0.570632, 0.733, 0, 0, 0
408, 9635.61, -1, 64, -0.000331613, 0.0890292, 1.79497, 0.576546, 0.102041, 0.00805163, 0.585562, 0.733, 0, 0, 0
409, 9666.1, -1, 64, -0.000122173, 0.087057, 1.79477, 0.597803, 0.11619, 0.0127696, 0.609124, 0.734, 0, 0, 0
410, 9696.77, -1, 64, -0.000122173, 0.0860098, 1.79479, 0.639375, 0.108957, 0.0136469, 0.648736, 0.734, 0, 0, 0
411, 9727.37, -1, 64, -0.000331613, 0.0845263, 1.7947, 0.611583, 0.107493, 0.0678215, 0.624651, 0.747, 0, 0, 0
412, 9763.53, -1, 64, 6.98132e-05, 0.0822399, 1.79476, 0.678401, 0.100517, 0.0303057, 0.686476, 0.744, 0, 0, 0
413, 9789.05, -1, 64, 0.000488692, 0.0809658, 1.79472, 0.716224, 0.109008, -0.00138405, 0.724473, 0.739, 0, 0, 0
414, 9820.12, -1, 64, 0.000191986, 0.0795696, 1.79465, 0.737575, 0.115735, 0.00065071, 0.7466, 0.739, 0, 0, 0
415, 9854.18, -1, 64, -0.000383972, 0.0789412, 1.7947, 0.724677, 0.109082, -0.0161303, 0.733018, 0.735, 0, 0, 0
416, 9881.66, -1, 64, -0.00111701, 0.0785224, 1.79455, 0.803477, 0.120636, -0.0195543, 0.812718, 0.733, 0, 0, 0
417, 9911.39, -1, 64, -0.00150098, 0.0781908, 1.79455, 0.819053, 0.114456, -0.0211471, 0.827282, 0.731, 0, 0, 0
418, 9942.21, -1, 64, -0.00244346, 0.0776148, 1.79453, 0.821106, 0.115661, -0.0153384, 0.829354, 0.731, 0, 0, 0
419, 9975.21, -1, 64, -0.00258309, 0.07662, 1.79463, 0.75954, 0.122811, -0.00531108, 0.769423, 0.731, 0, 0, 0
420, 10005.3, -1, 64, -0.00349066, 0.0757996, 1.79446, 0.827349, 0.125067, 0.00821773, 0.836788, 0.733, 0, 0, 0
421, 10037.1, -1, 64, -0.00434587, 0.0760614, 1.79443, 0.821399, 0.122964, 0.0113678, 0.830629, 0.733, 0, 0, 0
422, 10067.1, -1, 64, -0.00363028, 0.0760265, 1.79484, 0.852061, 0.131342, 0.00901545, 0.862172, 0.733, 0, 0, 0
423, 10102.7, -1, 64, -0.00315905, 0.0759567, 1.79401, 0.897155, 0.12133, 0.0110618, 0.90539, 0.733, 0, 0, 0
424, 10129.4, -1, 64, -0.00307178, 0.0760091, 1.79423, 0.904826, 0.11856, 0.0167545, 0.912714, 0.734, 0, 0, 0
425, 10164.8, -1, 64, -0.00350811, 0.0772657, 1.79423, 0.936646, 0.125303, 0.0215168, 0.945235, 0.736, 0, 0, 0
426, 10193.6, -1, 64, -0.00418879, 0.0777544, 1.79373, 0.97565, 0.117216, 0.0199013, 0.982868, 0.736, 0, 0, 0
427, 10220.7, -1, 64, -0.00446804, 0.0786794, 1.79381, 0.92905, 0.104591, 0.0200949, 0.935135, 0.737, 0, 0, 0
428, 10253.7, -1, 64, -0.00375246, 0.0794823, 1.7939, 0.956895, 0.110569, 0.023602, 0.963551, 0.738, 0, 0, 0
429, 10281.3, -1, 64, -0.00282743, 0.0797965, 1.79388, 0.979148, 0.117961, 0.0319075, 0.986744, 0.74, 0, 0, 0
430, 10311.3, -1, 64, -0.00162316, 0.0798488, 1.79383, 1.00144, 0.125896, 0.0294896, 1.00975, 0.741, 0, 0, 0
431, 10342.9, -1, 64, -0.00113446, 0.0800408, 1.79383, 1.04074, 0.129957, 0.0262011, 1.04915, 0.742, 0, 0, 0
432, 10373.6, -1, 64, -0.00148353, 0.0805644, 1.79374, 1.05329, 0.133738, 0.0308045, 1.06219, 0.744, 0, 0, 0
433, 10403.5, -1, 64, -0.00101229, 0.0809484, 1.79361, 1.03792, 0.115233, 0.0338697, 1.04485, 0.746, 0, 0, 0
434, 10434.3, -1, 64, -3.49066e-05, 0.0806866, 1.79357, 1.04092, 0.104171, 0.032781, 1.04664, 0.748, 0, 0, 0
435, 10464.7, -1, 64, 0.000418879, 0.0804771, 1.7934, 1.03286, 0.104863, 0.0302746, 1.03861, 0.748, 0, 0, 0
436, 10495.7, -1, 64, 0.00155334, 0.0794823, 1.7934, 1.04428, 0.0978109, 0.0291558, 1.04925, 0.75, 0, 0, 0
437, 10527, -1, 64, 0.00211185, 0.0788191, 1.79326, 1.08643, 0.117005, 0.0329299, 1.09321, 0.753, 0, 0, 0
438, 10557.1, -1, 64, 0.0029147, 0.0788191, 1.79327, 1.09049, 0.114216, 0.0345275, 1.097, 0.755, 0, 0, 0
439, 10587.9, -1, 64, 0.00383972, 0.0797965, 1.79326, 1.13567, 0.12394, 0.0339047, 1.14292, 0.757, 0, 0, 0
440, 10618.3, -1, 64, 0.0045204, 0.0798663, 1.79305, 1.13824, 0.12232, 0.0295741, 1.14517, 0.757, 0, 0, 0
441, 10655, -1, 64, 0.00511381, 0.0796743, 1.79289, 1.14269, 0.116347, 0.0278178, 1.14893, 0.76, 0, 0, 0
442, 10698.9, -1, 64, 0.00507891, 0.0801106, 1.79285, 1.19419, 0.0976044, 0.0272552, 1.19848, 0.763, 0, 0, 0
443, 10742.6, -1, 64, 0.00502655, 0.0800583, 1.79298, 1.20867, 0.0893305, 0.0236483, 1.2122, 0.765, 0, 0, 0
444, 10788.8, -1, 64, 0.00511381, 0.0805644, 1.79329, 1.21199, 0.0835761, 0.0191545, 1.21502, 0.767, 0, 0, 0
445, 10833.2, -1, 64, 0.00471239, 0.0815418, 1.7934, 1.21384, 0.0780873, 0.0100397, 1.21639, 0.768, 0, 0, 0
446, 10874.1, -1, 64, 0.00406662, 0.0820305, 1.79364, 1.21732, 0.0730922, 0.0219408, 1.21971, 0.773, 0, 0, 0
447, 10917.9, -1, 64, 0.00307178, 0.0825192, 1.7939, 1.21825, 0.0677378, 0.0153319, 1.22023, 0.775, 0, 0, 0
448, 10961.6, -1, 64, 0.00151844, 0.0834093, 1.79397, 1.21964, 0.0637842, 0.00504799, 1.22132, 0.775, 0, 0, 0
449, 11011.5, -1, 64, -0.000855211, 0.0848579, 1.79408, 1.22097, 0.0604844, -0.00192754, 1.22246, 0.776, 0, 0, 0
450, 11055.1, -1, 64, -0.00123918, 0.0857655, 1.79402, 1.22324, 0.058675, -0.00676571, 1.22467, 0.777, 0, 0, 0
451, 11104.2, -1, 64, -6.98132e-05, 0.0867778, 1.79409, 1.1431, 0.0839566, -0.015453, 1.14628, 0.776, 0, 0, 0
452, 11148.7, -1, 64, 0.000767945, 0.0870745, 1.79399, 1.14583, 0.0821355, -0.0172335, 1.1489, 0.777, 0, 0, 0
453, 11192.9, -1, 64, 0.00148353, 0.0885406, 1.79409, 1.14963, 0.0770948, -0.0158353, 1.15232, 0.778, 0, 0, 0
454, 11240.5, -1, 64, 0.000279253, 0.0886104, 1.79505, 1.18497, 0.102822, -0.0149466, 1.18952, 0.779, 0, 0, 0
455, 11284.6, -1, 64, 0.000907571, 0.0885755, 1.79376, 1.23343, 0.124867, 0.00126256, 1.23974, 0.784, 0, 0, 0
456, 11329.5, -1, 64, 0.001309, 0.0895354, 1.79387, 1.23532, 0.119447, -0.000445994, 1.24108, 0.786, 0, 0, 0
457, 11380.1, -1, 64, 0.0023911, 0.0904604, 1.79392, 1.23809, 0.11412, -0.0026146, 1.24334, 0.788, 0, 0, 0
458, 11425.8, -1, 64, 0.00429351, 0.0903033, 1.7934, 1.24048, 0.108568, -0.00617731, 1.24524, 0.791, 0, 0, 0
459, 11473.3, -1, 64, 0.00375246, 0.0909317, 1.79277, 1.24315, 0.10323, -0.0108323, 1.24748, 0.793, 0, 0, 0
460, 11517.2, -1, 64, 0.00286234, 0.0905651, 1.79254, 1.24412, 0.0997174, -0.0130164, 1.24818, 0.795, 0, 0, 0
461, 11559.7, -1, 64, 0.00246091, 0.0909666, 1.79214, 1.24594, 0.0958495, -0.0155027, 1.24972, 0.797, 0, 0, 0
462, 11604.8, -1, 64, 0.00102974, 0.088942, 1.79193, 1.24972, 0.0903759, -0.0190356, 1.25313, 0.799, 0, 0, 0
463, 11654, -1, 64, 0.000401426, 0.0716981, 1.79179, 1.24908, 0.0871495, -0.0192743, 1.25226, 0.8, 0, 0, 0
464, 11691.9, -1, 64, -0.000453786, 0.0469668, 1.79191, 1.23718, 0.0852296, -0.0303758, 1.24049, 0.8, 0, 0, 0
465, 11738.1, -1, 64, -0.00015708, -0.0018326, 1.79235, 1.26707, 0.0691168, -0.0245287, 1.2692, 0.803, 0, 0, 0
466, 11786, -1, 64, 0.00123918, -0.0277682, 1.7924, 1.22938, 0.0653228, -0.0201747, 1.23128, 0.806, 0, 0, 0
467, 11828.4, -1, 64, 0.00158825, -0.0528311, 1.79319, 1.43577, 0.0664246, -0.0183984, 1.43743, 0.809, 0, 0, 0
468, 11866, -1, 64, 0.00162316, -0.0705288, 1.7938, 1.53022, 0.0450899, -0.0137994, 1.53094, 0.812, 0, 0, 0
469, 11903.9, -1, 64, -0.000296706, -0.0911411, 1.79456, 1.45774, 0.0411256, -0.0185101, 1.45844, 0.814, 0, 0, 0
470, 11947.7, -1, 64, -0.00439823, -0.109694, 1.79514, 1.38597, 0.0399612, -0.0122963, 1.3866, 0.819, 0, 0, 0
471, 11990.6, -1, 64, -0.0055676, -0.127304, 1.79535, 1.30207, 0.0416975, -0.033341, 1.30317, 0.818, 0, 0, 0
472, 12029.5, -1, 64, -0.00500909, -0.13905, 1.79533, 1.2282, 0.0421779, -0.0220658, 1.22913, 0.822, 0, 0, 0
473, 12067.5, -1, 64, -0.00513127, -0.149976, 1.79547, 1.14245, 0.0435842, -0.0243768, 1.14354, 0.825, 0, 0, 0
474, 12106.1, -1, 64, -0.00307178, -0.157359, 1.79549, 1.06666, 0.0450914, -0.0252824, 1.06791, 0.828, 0, 0, 0
475, 12144.3, -1, 64, 0.000418879, -0.162926, 1.79542, 0.988427, 0.0442854, -0.0240991, 0.989712, 0.831, 0, 0, 0
476, 12182.3, -1, 64, 0.00434587, -0.165562, 1.79526, 0.900664, 0.0425417, -0.0343256, 0.902321, 0.832, 0, 0, 0
477, 12221.3, -1, 64, 0.00958186, -0.165579, 1.7949, 0.803293, 0.0380571, -0.0425333, 0.805318, 0.833, 0, 0, 0
478, 12260.4, -1, 64, 0.0117461, -0.166103, 1.79474, 0.738793, 0.0337742, -0.0428662, 0.740806, 0.835, 0, 0, 0
479, 12301, -1, 64, 0.0119381, -0.169157, 1.79422, 0.654417, 0.0276245, -0.0573195, 0.657503, 0.834, 0, 0, 0
480, 12340.3, -1, 64, 0.0117461, -0.169297, 1.79423, 0.559002, 0.0209215, -0.0666626, 0.563351, 0.834, 0, 0, 0
481, 12386, -1, 64, 0.0123744, -0.161705, 1.79392, 0.494301, 0.0210791, -0.08238, 0.501562, 0.832, 0, 0, 0
482, 12423.7, -1, 64, 0.0119381, -0.151268, 1.79402, 0.554685, 0.00804141, -0.0886601, 0.561784, 0.83, 0, 0, 0
483, 12469.9, -1, 64, 0.00965167, -0.125367, 1.79432, 0.601166, -0.015955, -0.105275, 0.610523, 0.826, 0, 0, 0
484, 12508.6, -1, 64, 0.00846485, -0.1113, 1.79477, 0.604258, -0.0295013, -0.119646, 0.616695, 0.822, 0, 0, 0
485, 12550.6, -1, 64, 0.00591667, -0.0800757, 1.79528, 0.576107, -0.0383846, -0.138479, 0.593759, 0.814, 0, 0, 0
486, 12591.7, -1, 64, 0.00432842, -0.0484329, 1.79579, 0.514634, -0.0341877, -0.13977, 0.534371, 0.808, 0, 0, 0
487, 12638.1, -1, 64, 0.00331613, -0.0168075, 1.79612, 0.508363, -0.0384046, -0.148322, 0.530949, 0.8, 0, 0, 0
488, 12680.7, -1, 64, 0.00254818, 0.0111876, 1.79629, 0.467625, -0.0350533, -0.164848, 0.497069, 0.79, 0, 0, 0
489, 12723.7, -1, 64, 0.000890118, 0.0294437, 1.79643, 0.457761, -0.0342765, -0.159705, 0.48603, 0.784, 0, 0, 0
490, 12774.9, -1, 64, -0.0013439, 0.0466352, 1.79664, 0.426868, -0.028095, -0.163619, 0.458014, 0.773, 0, 0, 0
491, 12823.6, -1, 64, -0.00258309, 0.0467748, 1.79636, 0.390941, -0.00927386, -0.150428, 0.418987, 0.765, 0, 0, 0
492, 12872.1, -1, 64, -0.00376991, 0.0308923, 1.79626, 0.35481, -0.0224644, -0.139611, 0.381951, 0.76, 0, 0, 0
493, 12880.5, -1, 64, -0.00446804, 0.0198793, 1.79605, 0.338988, -0.0301978, -0.135786, 0.366419, 0.758, 0, 0, 0
494, 12923.8, -1, 64, -0.00670206, -0.00940732, 1.79636, 0.339524, -0.0307475, -0.123712, 0.362666, 0.753, 0, 0, 0
495, 12969.6, -1, 64, -0.00815069, -0.0329344, 1.79559, 0.324399, -0.0226229, -0.0948106, 0.338726, 0.75, 0, 0, 0
496, 13012.4, -1, 64, -0.00972148, -0.0447153, 1.79638, 0.309627, -0.0395526, -0.0807583, 0.322421, 0.748, 0, 0, 0
497, 13054.8, -1, 64, -0.0110654, -0.0504749, 1.79608, 0.280885, -0.0424601, -0.0630471, 0.290988, 0.747, 0, 0, 0
498, 13098.4, -1, 64, -0.0118682, -0.0523773, 1.79636, 0.228543, -0.0408276, -0.0560434, 0.23883, 0.746, 0, 0, 0
499, 13147.7, -1, 64, -0.0122173, -0.0496372, 1.79594, 0.187412, -0.039089, -0.0491063, 0.197643, 0.744, 0, 0, 0
500, 13190, -1, 64, -0.0131947, -0.043354, 1.79561, 0.141437, -0.0399694, -0.0393651, 0.152156, 0.744, 0, 0, 0
501, 13234.5, -1, 64, -0.0140499, -0.0343306, 1.79521, 0.0950445, -0.0361678, -0.0377092, 0.10846, 0.743, 0, 0, 0
502, 13276.1, -1, 64, -0.0131074, -0.0234747, 1.79486, 0.0550732, -0.0335016, -0.039375, 0.0755368, 0.741, 0, 0, 0
503, 13318.4, -1, 64, -0.0128282, -0.0114319, 1.79441, 0.0225948, -0.0346447, -0.0405442, 0.057919, 0.739, 0, 0, 0
504, 13356.2, -1, 64, -0.0128456, -0.00333358, 1.79434, 0.000146268, -0.0339201, -0.030056, 0.0453206, 0.74, 0, 0, 0
505, 13366.5, -1, 64, -0.0128456, -0.000802851, 1.79434, -0.00259102, -0.0347057, -0.0304959, 0.0462731, 0.74, 0, 0, 0
506, 13398.1, -1, 64, -0.012514, 0.00764454, 1.79418, -0.019508, -0.0320195, -0.033474, 0.0502625, 0.738, 0, 0, 0
507, 13428.3, -1, 64, -0.0122522, 0.0150796, 1.79404, -0.0304887, -0.0288108, -0.0301327, 0.0516488, 0.738, 0, 0, 0
508, 13459.4, -1, 64, -0.0120951, 0.0204902, 1.79392, -0.0495714, -0.0292727, -0.0278366, 0.063946, 0.737, 0, 0, 0
509, 13489.5, -1, 64, -0.0112225, 0.0260229, 1.79394, -0.0534569, -0.0274347, -0.0264247, 0.0656397, 0.737, 0, 0, 0
510, 13519.7, -1, 64, -0.0110479, 0.0290423, 1.79399, -0.0586172, -0.0272976, -0.0266709, 0.0699462, 0.736, 0, 0, 0
511, 13550.8, -1, 64, -0.0106814, 0.0332834, 1.7938, -0.062132, -0.0253504, -0.0273238, 0.0724542, 0.735, 0, 0, 0
512, 13582.2, -1, 64, -0.00993092, 0.0365472, 1.79406, -0.0650685, -0.0237341, -0.0325527, 0.0765303, 0.733, 0, 0, 0
513, 13612.4, -1, 64, -0.0098262, 0.0399506, 1.79406, -0.082705, -0.0224748, -0.0373471, 0.0934882, 0.731, 0, 0, 0
514, 13643.3, -1, 64, -0.00959931, 0.0426733, 1.79409, -0.0905538, -0.0209725, -0.035261, 0.0994142, 0.73, 0, 0, 0
515, 13673.4, -1, 64, -0.00862193, 0.0455356, 1.79402, -0.1018, -0.0198209, -0.0373839, 0.110244, 0.727, 0, 0, 0
516, 13704.7, -1, 64, -0.00829031, 0.0465828, 1.79411, -0.0939422, -0.0202205, -0.0352192, 0.102345, 0.726, 0, 0, 0
517, 13735.2, -1, 64, -0.00773181, 0.0481362, 1.79397, -0.102467, -0.0144558, -0.0308605, 0.107985, 0.725, 0, 0, 0
518, 13765.3, -1, 64, -0.00731293, 0.0500037, 1.79401, -0.110265, -0.0149209, -0.0275511, 0.11463, 0.724, 0, 0, 0
519, 13795.8, -1, 64, -0.00581195, 0.0515047, 1.7995, -0.118916, -0.0110734, -0.0248234, 0.121983, 0.723, 0, 0, 0
520, 13826, -1, 64, -0.00190241, 0.0510509, 1.82355, -0.100274, -0.0124874, -0.0135933, 0.101959, 0.724, 0, 0, 0
521, 13857.3, -1, 64, 0.00205949, 0.0469145, 1.83198, -0.0785137, -0.0138497, -0.0138022, 0.0809117, 0.724, 0, 0, 0
522, 13887.8, -1, 64, 0.00703368, 0.0441219, 1.8357, -0.0941432, 0.00187194, -0.0123053, 0.0949625, 0.723, 0, 0, 0
523, 13922.5, -1, 64, 0.00710349, 0.0489739, 1.85083, -0.0919029, -0.00342504, 0.000327965, 0.0919673, 0.726, 0, 0, 0
524, 13949.3, -1, 64, 0.0039619, 0.0555538, 1.85701, -0.100457, -0.00321355, 0.00811108, 0.100835, 0.728, 0, 0, 0
525, 13980.1, -1, 64, 0.00293215, 0.0597077, 1.86563, -0.0798622, 0.00458418, 0.017278, 0.0818384, 0.73, 0, 0, 0
526, 14010.7, -1, 64, 0.00324631, 0.0614705, 1.87056, -0.0876343, -0.0064206, 0.0148715, 0.0891188, 0.73, 0, 0, 0
527, 14048, -1, 64, 0.00383972, 0.0633031, 1.87897, -0.0678322, -0.012188, 0.0416043, 0.0805026, 0.737, 0, 0, 0
528, 14072.8, -1, 64, 0.00375246, 0.0633729, 1.88309, -0.062325, -0.0143948, 0.0363324, 0.073564, 0.738, 0, 0, 0
529, 14109.7, -1, 64, 0.00251327, 0.0625875, 1.89028, -0.0641091, -0.00983697, 0.0398696, 0.0761336, 0.743, 0, 0, 0
530, 14137.9, -1, 64, 0.00125664, 0.0614879, 1.89401, -0.080696, -0.00366286, 0.0371862, 0.0889273, 0.744, 0, 0, 0
531, 14165.6, -1, 64, 0.000383972, 0.060912, 1.89901, -0.081899, 0.00347685, 0.0329732, 0.0883559, 0.746, 0, 0, 0
532, 14197.9, -1, 64, -6.98132e-05, 0.0607026, 1.90166, -0.0600574, 0.000431997, 0.0240623, 0.0646998, 0.747, 0, 0, 0
533, 14225.2, -1, 64, 3.49066e-05, 0.0605106, 1.90431, -0.0727352, 0.00486956, 0.0187965, 0.0752824, 0.747, 0, 0, 0
534, 14255.8, -1, 64, -3.49066e-05, 0.0598822, 1.90803, -0.049801, -0.00179571, 0.0131156, 0.0515304, 0.748, 0, 0, 0
535, 14292.5, -1, 64, -0.000418879, 0.0582591, 1.91562, -0.0374643, 0.00510827, 0.00633233, 0.0383375, 0.748, 0, 0, 0
536, 14317.5, -1, 64, 0.00015708, 0.0553618, 1.94383, -0.0360131, -0.000382327, -0.0072134, 0.0367304, 0.746, 0, 0, 0
537, 14350.1, -1, 64, 0.000907571, 0.0495324, 1.95976, -0.0534633, 0.00183427, -0.0123144, 0.0548938, 0.746, 0, 0, 0
538, 14377.5, -1, 64, 0.000733038, 0.0451866, 1.9773, -0.0338099, 0.00169039, -0.0104275, 0.0354218, 0.746, 0, 0, 0
539, 14407, -1, 64, 0.000383972, 0.0401775, 2.00325, -0.024163, -0.00270041, -0.0141781, 0.0281453, 0.746, 0, 0, 0
540, 14437, -1, 64, 0.00106465, 0.0366519, 2.0236, -0.0439642, 0.00845747, -0.0166681, 0.0477724, 0.745, 0, 0, 0
541, 14467.8, -1, 64, 0.00136136, 0.0347844, 2.03945, -0.0328836, 0.0105261, -0.0107499, 0.036162, 0.746, 0, 0, 0
542, 14498, -1, 64, 0.00230383, 0.0312065, 2.06539, -0.0574436, 0.0159624, -0.0103661, 0.0605147, 0.746, 0, 0, 0
543, 14528.2, -1, 64, 0.00237365, 0.0289376, 2.0919, -0.0328688, 0.0177663, -0.00583353, 0.0378157, 0.747, 0, 0, 0
544, 14558.7, -1, 64, 0.00235619, 0.0274889, 2.11129, -0.0212237, 0.0250708, -0.00866428, 0.0339714, 0.747, 0, 0, 0
545, 14589.9, -1, 64, 0.00261799, 0.0258832, 2.14176, -0.00973885, 0.0288409, -0.00587728, 0.031003, 0.748, 0, 0, 0
546, 14620.9, -1, 64, 0.00284489, 0.0245044, 2.16526, 0.00826596, 0.0160551, 0.012686, 0.0220687, 0.752, 0, 0, 0
547, 14655.9, -1, 64, 0.00441568, 0.022794, 2.19231, 0.016108, 0.0238169, -0.0119127, 0.0311227, 0.749, 0, 0, 0
548, 14682.8, -1, 64, 0.0047822, 0.0220959, 2.20391, 0.0198472, 0.0332049, -0.0136664, 0.0410274, 0.749, 0, 0, 0
549, 14712.7, -1, 64, 0.00404916, 0.0203505, 2.23502, 0.0202706, 0.0252707, -0.0295209, 0.0438291, 0.746, 0, 0, 0
550, 14743.9, -1, 64, 0.00383972, 0.0193033, 2.25809, 0.0245254, 0.0324255, -0.0408877, 0.0576604, 0.743, 0, 0, 0
551, 14781.4, -1, 64, 0.00378736, 0.0182736, 2.2823, 0.0237715, 0.0387876, -0.0468779, 0.065323, 0.74, 0, 0, 0
552, 14805.5, -1, 64, 0.00441568, 0.0172439, 2.30923, 0.0132025, 0.0561782, -0.0422473, 0.0715202, 0.738, 0, 0, 0
553, 14842.7, -1, 64, 0.00495674, 0.0167203, 2.3333, 0.0139139, 0.058701, -0.039134, 0.0719088, 0.737, 0, 0, 0
554, 14870.1, -1, 64, 0.00497419, 0.0164585, 2.35277, 0.0254114, 0.0500731, -0.044571, 0.0716912, 0.734, 0, 0, 0
555, 14904.3, -1, 64, 0.00495674, 0.0163886, 2.38845, 0.0289919, 0.0568195, -0.0451814, 0.0781687, 0.731, 0, 0, 0
556, 14930.9, -1, 64, 0.00514872, 0.016249, 2.40416, 0.033247, 0.0639697, -0.0512729, 0.0884669, 0.728, 0, 0, 0
557, 14960.4, -1, 64, 0.00558505, 0.0155858, 2.43144, 0.0310772, 0.0686092, -0.0432388, 0.0868482, 0.727, 0, 0, 0
558, 14995.7, -1, 64, 0.00605629, 0.0151844, 2.45559, 0.0251084, 0.0778689, -0.0370307, 0.0898068, 0.725, 0, 0, 0
559, 15027.5, -1, 64, 0.0066497, 0.0153065, 2.47886, 0.00489009, 0.0897096, -0.0344211, 0.0962109, 0.724, 0, 0, 0
560, 15053.5, -1, 64, 0.00701622, 0.0150447, 2.49877, 0.00802084, 0.0892658, -0.0295473, 0.0943704, 0.723, 0, 0, 0
561, 15084.6, -1, 64, 0.0076969, 0.0145211, 2.52265, 0.00496643, 0.0981951, -0.0242067, 0.101257, 0.722, 0, 0, 0
562, 15116.1, -1, 64, 0.00872665, 0.0137881, 2.54624, 0.00665193, 0.111162, -0.0236787, 0.11385, 0.72, 0, 0, 0
563, 15145.9, -1, 64, 0.00867429, 0.0131947, 2.5741, 0.00610658, 0.116558, -0.00524039, 0.116836, 0.722, 0, 0, 0
564, 15182, -1, 64, 0.00865683, 0.0128805, 2.60174, 0.00270175, 0.121022, -0.0216332, 0.12297, 0.718, 0, 0, 0
565, 15213.4, -1, 64, 0.00911062, 0.0120951, 2.6295, -0.00120739, 0.126555, -0.0232461, 0.128678, 0.715, 0, 0, 0
566, 15238.1, -1, 64, 0.00909317, 0.0116763, 2.64142, -0.00455063, 0.13319, -0.0193692, 0.134668, 0.715, 0, 0, 0
567, 15272, -1, 64, 0.00865683, 0.0115017, 2.66505, -0.00213921, 0.141521, -0.0144365, 0.142271, 0.714, 0, 0, 0
568, 15299.4, -1, 64, 0.00827286, 0.0116064, 2.69292, 0.000215533, 0.149854, -0.0152834, 0.150632, 0.712, 0, 0, 0
569, 15329.2, -1, 64, 0.00935496, 0.0115192, 2.72025, 0.00298708, 0.156059, -0.0138696, 0.156702, 0.71, 0, 0, 0
570, 15359.1, -1, 64, 0.0100356, 0.0116413, 2.73863, 0.00357873, 0.155278, -0.007369, 0.155494, 0.71, 0, 0, 0
571, 15389.5, -1, 64, 0.0106465, 0.0119031, 2.76408, 0.00714871, 0.160017, 0.00386687, 0.160223, 0.711, 0, 0, 0
572, 15419.7, -1, 64, 0.0111527, 0.0115715, 2.79103, 0.0130857, 0.169772, 0.000759275, 0.170278, 0.709, 0, 0, 0
573, 15449.4, -1, 64, 0.0114668, 0.0109956, 2.81504, 0.0152537, 0.169754, 0.00488673, 0.170508, 0.709, 0, 0, 0
574, 15486.5, -1, 64, 0.0117286, 0.0108036, 2.83916, 0.0222199, 0.17242, 0.0107366, 0.174177, 0.709, 0, 0, 0
575, 15513.9, -1, 64, 0.0122871, 0.0109258, 2.86662, 0.02527, 0.176724, 0.00951717, 0.178775, 0.708, 0, 0, 0
576, 15541.1, -1, 64, 0.0125315, 0.0108909, 2.87873, 0.0254987, 0.179094, 0.0152723, 0.181543, 0.709, 0, 0, 0
577, 15577.7, -1, 64, 0.0131772, 0.0106291, 2.9181, 0.0312162, 0.183298, 0.0174108, 0.18675, 0.708, 0, 0, 0
578, 15607.3, -1, 64, 0.0134739, 0.0109258, 2.93406, 0.0377083, 0.181832, 0.0207602, 0.186858, 0.709, 0, 0, 0
579, 15633.5, -1, 64, 0.0143641, 0.0111003, 2.96191, 0.0439758, 0.180505, 0.0197984, 0.186836, 0.708, 0, 0, 0
580, 15666.3, -1, 64, 0.0147655, 0.0113795, 2.98558, 0.0480192, 0.183062, 0.0227836, 0.190622, 0.708, 0, 0, 0
581, 15697.7, -1, 64, 0.0150622, 0.0113621, 3.0016, 0.0516888, 0.187023, 0.0256632, 0.195724, 0.709, 0, 0, 0
582, 15727.3, -1, 64, 0.0156382, 0.0114668, 3.02949, 0.0556031, 0.187985, 0.0309174, 0.198459, 0.71, 0, 0, 0
583, 15757.1, -1, 64, 0.0163363, 0.0114145, 3.05345, 0.0584693, 0.193138, 0.0305913, 0.204099, 0.71, 0, 0, 0
584, 15793, -1, 64, 0.0167203, 0.0116064, 3.08134, 0.062901, 0.199136, 0.0347612, 0.211707, 0.711, 0, 0, 0
585, 15821.4, -1, 64, 0.017017, 0.0115366, 3.10532, 0.0700673, 0.202892, 0.049035, 0.220179, 0.714, 0, 0, 0
586, 15848.4, -1, 64, 0.0177325, 0.0113446, 3.1252, 0.0701754, 0.200793, 0.0494836, 0.218382, 0.715, 0, 0, 0
587, 15886.2, -1, 64, 0.0187797, 0.0104196, -3.12215, 0.0788333, 0.196582, 0.0507397, 0.217793, 0.718, 0, 0, 0
588, 15913.9, -1, 64, 0.0185703, 0.00940732, -3.09834, 0.0790277, 0.206484, 0.0458028, 0.225785, 0.718, 0, 0, 0
589, 15943.7, -1, 64, 0.018134, 0.00902335, -3.0775, 0.0870601, 0.206888, 0.0460803, 0.229141, 0.719, 0, 0, 0
590, 15972.3, -1, 64, 0.0179594, 0.00841249, -3.05335, 0.0938931, 0.205324, 0.0380162, 0.228952, 0.719, 0, 0, 0
591, 16003.1, -1, 64, 0.0181863, 0.00759218, -3.02633, 0.0988523, 0.201344, 0.0394358, 0.227742, 0.72, 0, 0, 0
592, 16033.3, -1, 64, 0.018326, 0.0068766, -3.00549, 0.104341, 0.199905, 0.0401927, 0.229051, 0.721, 0, 0, 0
593, 16064.2, -1, 64, 0.0185703, 0.00600393, -2.98619, 0.109019, 0.194022, 0.0294588, 0.224494, 0.72, 0, 0, 0
594, 16094.6, -1, 64, 0.0188321, 0.00497419, -2.95802, 0.113805, 0.192875, 0.0310486, 0.226089, 0.721, 0, 0, 0
595, 16126.3, -1, 64, 0.0192335, 0.00380482, -2.93395, 0.125237, 0.193797, 0.0333583, 0.23314, 0.722, 0, 0, 0
596, 16156.3, -1, 64, 0.0190241, 0.00301942, -2.9103, 0.131492, 0.186237, 0.0377118, 0.231077, 0.723, 0, 0, 0
597, 16190.6, -1, 64, 0.0180467, 0.00205949, -2.8821, 0.137915, 0.180259, 0.0475239, 0.231889, 0.726, 0, 0, 0
598, 16218.2, -1, 64, 0.0165981, 0.00144862, -2.85421, 0.136087, 0.182744, 0.0404884, 0.231418, 0.727, 0, 0, 0
599, 16248.9, -1, 64, 0.016249, 0.0013439, -2.84211, 0.15512, 0.173351, 0.0406509, 0.236147, 0.727, 0, 0, 0
600, 16282.8, -1, 64, 0.0155858, 0.000942478, -2.81806, 0.165501, 0.178036, 0.0473692, 0.247652, 0.73, 0, 0, 0
601, 16309.9, -1, 64, 0.0148702, 1.74533e-05, -2.79015, 0.164902, 0.18563, 0.0321136, 0.250365, 0.729, 0, 0, 0
602, 16340.1, -1, 64, 0.0139103, -0.00144862, -2.76204, 0.170324, 0.177096, 0.0280041, 0.247301, 0.729, 0, 0, 0
603, 16370.3, -1, 64, 0.012706, -0.00303687, -2.73422, 0.171598, 0.17411, 0.0219095, 0.245439, 0.729, 0, 0, 0
604, 16401.1, -1, 64, 0.011781, -0.00368264, -2.71825, 0.170316, 0.17432, 0.0234498, 0.244837, 0.729, 0, 0, 0
605, 16432, -1, 64, 0.0104545, -0.0047822, -2.69025, 0.165689, 0.172453, 0.0257038, 0.240528, 0.73, 0, 0, 0
606, 16462.9, -1, 64, 0.00954695, -0.00560251, -2.66627, 0.18412, 0.157851, 0.0121162, 0.242825, 0.728, 0, 0, 0
607, 16500.9, -1, 64, 0.00961676, -0.00633555, -2.63007, 0.205576, 0.157955, 0.0204228, 0.260054, 0.729, 0, 0, 0
608, 16525.5, -1, 64, 0.00879646, -0.00624828, -2.61794, 0.204949, 0.148682, 0.0219011, 0.254146, 0.729, 0, 0, 0
609, 16561.2, -1, 64, 0.00678933, -0.00678933, -2.58494, 0.220785, 0.142792, 0.0142187, 0.263321, 0.728, 0, 0, 0
610, 16585.7, -1, 64, 0.00602139, -0.0074002, -2.57314, 0.225627, 0.143615, 0.00953401, 0.267626, 0.727, 0, 0, 0
611, 16620.7, -1, 64, 0.00380482, -0.00890118, -2.53371, 0.21532, 0.146837, 0.0174547, 0.261205, 0.727, 0, 0, 0
612, 16652.1, -1, 64, 0.00312414, -0.00932006, -2.51718, 0.219357, 0.147161, 0.0200722, 0.264909, 0.728, 0, 0, 0
613, 16677.4, -1, 64, 0.00211185, -0.0092677, -2.48987, 0.214311, 0.139214, 0.0147646, 0.255983, 0.726, 0, 0, 0
614, 16707.8, -1, 64, 0.00136136, -0.00890118, -2.46507, 0.217227, 0.143293, 0.0191245, 0.260933, 0.727, 0, 0, 0
615, 16742.9, -1, 64, 0.000994838, -0.00853466, -2.44522, 0.218515, 0.146163, 0.0183797, 0.263534, 0.726, 0, 0, 0
616, 16771.8, -1, 64, 0.000837758, -0.00830777, -2.42121, 0.222513, 0.149904, 0.0225381, 0.269242, 0.727, 0, 0, 0
617, 16800.4, -1, 64, 0.000366519, -0.00834267, -2.39676, 0.229015, 0.150082, 0.0193881, 0.274497, 0.726, 0, 0, 0
618, 16831.7, -1, 64, -0.00015708, -0.00863938, -2.37298, 0.230676, 0.153852, 0.0222621, 0.278168, 0.726, 0, 0, 0
619, 16869.8, -1, 64, -0.000645772, -0.00842994, -2.34858, 0.228754, 0.147712, 0.0210394, 0.273112, 0.726, 0, 0, 0
620, 16908.9, -1, 64, -0.0010472, -0.00733038, -2.30839, 0.237161, 0.154496, 0.0345956, 0.285151, 0.729, 0, 0, 0
621, 16947.7, -1, 64, -0.00111701, -0.00670206, -2.28012, 0.241484, 0.151421, 0.0239866, 0.286039, 0.727, 0, 0, 0
622, 16985.8, -1, 64, -0.00167552, -0.00638791, -2.24776, 0.239918, 0.156796, 0.0283433, 0.288009, 0.728, 0, 0, 0
623, 17024.7, -1, 64, -0.00197222, -0.00677188, -2.21528, 0.24635, 0.151801, 0.019706, 0.290035, 0.727, 0, 0, 0
624, 17063.3, -1, 64, -0.00253073, -0.00663225, -2.19121, 0.258785, 0.157449, 0.0241146, 0.303877, 0.728, 0, 0, 0
625, 17101.6, -1, 64, -0.00314159, -0.00640536, -2.15072, 0.264562, 0.156328, 0.0239196, 0.308227, 0.728, 0, 0, 0
626, 17145.2, -1, 64, -0.00338594, -0.00579449, -2.11466, 0.27137, 0.159444, 0.0458776, 0.318071, 0.733, 0, 0, 0
627, 17196.4, -1, 64, -0.00371755, -0.00514872, -2.08246, 0.265302, 0.15692, 0.0446102, 0.311447, 0.734, 0, 0, 0
628, 17228.6, -1, 64, -0.00420624, -0.00486947, -2.05844, 0.274297, 0.159274, 0.0445649, 0.320301, 0.736, 0, 0, 0
629, 17272.6, -1, 64, -0.00481711, -0.00483456, -2.0223, 0.286824, 0.161245, 0.0370475, 0.33112, 0.736, 0, 0, 0
630, 17322.7, -1, 64, -0.00523599, -0.00535816, -1.97835, 0.273811, 0.150432, 0.0420237, 0.315227, 0.739, 0, 0, 0
631, 17369.7, -1, 64, -0.00532325, -0.00525344, -1.94222, 0.28107, 0.151692, 0.0273667, 0.320561, 0.738, 0, 0, 0
632, 17422, -1, 64, -0.00506145, -0.00495674, -1.90222, 0.305047, 0.157486, 0.0287391, 0.344502, 0.739, 0, 0, 0
633, 17469.4, -1, 64, -0.00586431, -0.00403171, -1.86637, 0.294673, 0.160033, 0.0214954, 0.336013, 0.738, 0, 0, 0
634, 17517.3, -1, 64, -0.00534071, -0.00338594, -1.82654, 0.307087, 0.163278, 0.0151645, 0.348126, 0.737, 0, 0, 0
635, 17566.2, -1, 64, -0.00431096, -0.00261799, -1.79041, 0.333825, 0.170668, 0.0221927, 0.375578, 0.738, 0, 0, 0
636, 17609.1, -1, 64, -0.00333358, -0.00181514, -1.75037, 0.318001, 0.158738, 0.0276961, 0.356496, 0.74, 0, 0, 0
637, 17655.5, -1, 64, -0.00432842, -0.00260054, -1.71468, 0.304682, 0.151059, 0.0317929, 0.341556, 0.742, 0, 0, 0
638, 17693.7, -1, 64, -0.00366519, -0.00287979, -1.68656, 0.321396, 0.162922, 0.0264324, 0.3613, 0.741, 0, 0, 0
639, 17735.2, -1, 64, -0.00249582, -0.00296706, -1.65065, 0.328443, 0.151837, 0.0350461, 0.363535, 0.744, 0, 0, 0
640, 17779.8, -1, 64, -0.00193732, -0.00335103, -1.61504, 0.306018, 0.13907, 0.0413292, 0.338667, 0.747, 0, 0, 0
641, 17788.3, -1, 64, -0.00200713, -0.00418879, -1.60818, 0.301107, 0.139637, 0.033997, 0.333646, 0.747, 0, 0, 0
642, 17826.7, -1, 64, -0.00162316, -0.00858702, -1.59848, 0.307319, 0.147601, 0.0330534, 0.342525, 0.748, 0, 0, 0
643, 17865.3, -1, 64, 0.00155334, -0.0177675, -1.57752, 0.301701, 0.155783, 0.0278099, 0.340684, 0.749, 0, 0, 0
644, 17906.1, -1, 64, 0.00527089, -0.0231605, -1.56954, 0.307446, 0.164916, 0.0270854, 0.349935, 0.749, 0, 0, 0
645, 17950.2, -1, 64, 0.00909317, -0.0289376, -1.55615, 0.304269, 0.160692, 0.0280791, 0.345239, 0.751, 0, 0, 0
646, 17991.9, -1, 64, 0.0122871, -0.0347844, -1.5446, 0.286101, 0.160591, 0.0367963, 0.330147, 0.755, 0, 0, 0
647, 18037.9, -1, 64, 0.0163188, -0.0390256, -1.53343, 0.270217, 0.158789, 0.0283861, 0.314701, 0.756, 0, 0, 0
648, 18079.1, -1, 64, 0.0179071, -0.0408582, -1.52783, 0.256911, 0.155941, 0.0259998, 0.301657, 0.757, 0, 0, 0
649, 18121.2, -1, 64, 0.0195128, -0.0430573, -1.52112, 0.233596, 0.150554, 0.0303855, 0.279566, 0.759, 0, 0, 0
650, 18167.8, -1, 64, 0.0199491, -0.0441394, -1.50325, 0.22919, 0.146348, 0.0187582, 0.272576, 0.759, 0, 0, 0
651, 18175.5, -1, 64, 0.0194779, -0.0440347, -1.4944, 0.217241, 0.139512, 0.0180523, 0.258811, 0.759, 0, 0, 0
652, 18216.4, -1, 64, 0.0169646, -0.0401949, -1.47489, 0.182484, 0.110566, 0.0171212, 0.214052, 0.76, 0, 0, 0
653, 18257.7, -1, 64, 0.0161617, -0.0388336, -1.45745, 0.171784, 0.122817, 0.0106636, 0.211442, 0.76, 0, 0, 0
654, 18302.1, -1, 64, 0.019059, -0.0363378, -1.44211, 0.135788, 0.123491, 0.0209517, 0.184736, 0.763, 0, 0, 0
655, 18341.4, -1, 64, 0.0203156, -0.0344528, -1.4307, 0.119602, 0.120836, 0.017694, 0.170936, 0.763, 0, 0, 0
656, 18391.5, -1, 64, 0.0241728, -0.0323235, -1.41609, 0.112524, 0.111945, 0.0255528, 0.160768, 0.767, 0, 0, 0
657, 18439.2, -1, 64, 0.0263196, -0.0299149, -1.40461, 0.084697, 0.103903, 0.0265604, 0.136656, 0.769, 0, 0, 0
658, 18484.5, -1, 64, 0.026721, -0.0263545, -1.39377, 0.0575145, 0.0931758, 0.0221682, 0.111719, 0.771, 0, 0, 0
659, 18531.1, -1, 64, 0.0261625, -0.0217817, -1.38558, 0.050624, 0.0765323, 0.0133959, 0.0927331, 0.772, 0, 0, 0
660, 18568.8, -1, 64, 0.0255865, -0.018326, -1.38057, 0.0473477, 0.0734545, 0.0132327, 0.0883882, 0.773, 0, 0, 0
661, 18607.1, -1, 64, 0.0232478, -0.0138579, -1.37336, 0.0402434, 0.0637416, 0.00123531, 0.0753926, 0.773, 0, 0, 0
662, 18647.9, -1, 64, 0.0215548, -0.0121824, -1.36963, 0.0345709, 0.0552737, -0.00268863, 0.0652499, 0.773, 0, 0, 0
663, 18695.4, -1, 64, 0.0188845, -0.0098262, -1.36221, 0.0253528, 0.0490819, -0.0101331, 0.0561648, 0.772, 0, 0, 0
664, 18736, -1, 64, 0.0190241, -0.0117984, -1.34052, 0.0169442, 0.0367505, -0.0180738, 0.0443211, 0.77, 0, 0, 0
665, 18778.4, -1, 64, 0.0177325, -0.0141372, -1.33149, 0.00985886, 0.0232435, -0.0284409, 0.0380308, 0.767, 0, 0, 0
666, 18821.9, -1, 64, 0.0108559, -0.0120602, -1.31957, -0.00829702, 0.0391336, -0.0255838, 0.0474848, 0.766, 0, 0, 0
667, 18871.2, -1, 64, 0.00602139, -0.000663225, -1.31331, -0.0126916, 0.0590663, -0.0163773, 0.0625949, 0.767, 0, 0, 0
668, 18913.8, -1, 64, 0.00760964, 0.00577704, -1.30594, -0.0068593, 0.0554253, 0.00807354, 0.0564286, 0.771, 0, 0, 0
669, 18957.9, -1, 64, 0.0090059, 0.00902335, -1.30242, -0.0299995, 0.0591072, 0.0171587, 0.0684693, 0.774, 0, 0, 0
670, 19001, -1, 64, 0.0102102, 0.0131249, -1.29709, 0.00451206, 0.0653781, 0.0114588, 0.0665279, 0.776, 0, 0, 0
671, 19048.2, -1, 64, 0.0114494, 0.0142419, -1.29345, -0.00249843, 0.0689309, 0.00370232, 0.0690754, 0.776, 0, 0, 0
672, 19096.9, -1, 64, 0.0136485, 0.0136659, -1.28729, -0.0163229, 0.0689653, -0.00478791, 0.0710322, 0.776, 0, 0, 0
673, 19144.7, -1, 64, 0.0120777, 0.0138579, -1.25545, -0.00285347, 0.034394, -0.0102433, 0.0360002, 0.776, 0, 0, 0
674, 19190.9, -1, 64, 0.00832522, 0.0129678, -1.25156, -0.00548576, 0.0565653, -0.0165109, 0.0591805, 0.775, 0, 0, 0
675, 19238, -1, 64, 0.00736529, 0.0110305, -1.23623, -0.00544178, 0.0514995, -0.00378822, 0.0519246, 0.778, 0, 0, 0
676, 19278.1, -1, 64, 0.00860447, 0.0109083, -1.2281, -0.00496494, 0.0534048, -0.0108172, 0.0547151, 0.778, 0, 0, 0
677, 19322.9, -1, 64, 0.00918043, 0.0108385, -1.22035, -0.0106853, 0.0504536, -0.0014426, 0.0515928, 0.78, 0, 0, 0
678, 19366.8, -1, 64, 0.00959931, 0.0108559, -1.21215, -0.0162847, 0.0505409, -0.0110822, 0.0542438, 0.78, 0, 0, 0
679, 19408, -1, 64, 0.00949459, 0.0108909, -1.20669, -0.0192246, 0.0437002, -0.00633247, 0.0481601, 0.782, 0, 0, 0
680, 19446.7, -1, 64, 0.00942478, 0.0109083, -1.20237, -0.0166735, 0.0340007, -0.000554649, 0.037873, 0.784, 0, 0, 0
681, 19484.9, -1, 64, 0.00884882, 0.0118682, -1.19784, -0.0309181, 0.034002, -0.0168749, 0.0489574, 0.783, 0, 0, 0
682, 19522.7, -1, 64, 0.00834267, 0.0127933, -1.19422, -0.0292798, 0.0360565, -0.0286956, 0.0545969, 0.781, 0, 0, 0
683, 19560.5, -1, 64, 0.00851721, 0.0137532, -1.1912, -0.025027, 0.034585, -0.0404119, 0.0587843, 0.778, 0, 0, 0
684, 19598.3, -1, 64, 0.00872665, 0.0150447, -1.18845, -0.0183303, 0.0427543, -0.049876, 0.0682022, 0.776, 0, 0, 0
685, 19641.8, -1, 64, 0.00932006, 0.0156032, -1.186, -0.0290966, 0.0530994, -0.0586275, 0.0842813, 0.772, 0, 0, 0
686, 19688.5, -1, 64, 0.0106291, 0.015865, -1.18267, -0.0149639, 0.0477244, -0.0610441, 0.0789172, 0.767, 0, 0, 0
687, 19731.3, -1, 64, 0.0111876, 0.0154985, -1.18136, -0.0109972, 0.0411574, -0.0632075, 0.0762237, 0.764, 0, 0, 0
688, 19779.9, -1, 64, 0.0112225, 0.0149226, -1.17925, -0.0240559, 0.0262587, -0.0691249, 0.077759, 0.758, 0, 0, 0
689, 19830.9, -1, 64, 0.0102974, 0.0155509, -1.17764, -0.0238971, 0.0212548, -0.0674587, 0.074656, 0.753, 0, 0, 0
690, 19873.8, -1, 64, 0.00914553, 0.0157778, -1.17661, -0.0142185, 0.011191, -0.0657234, 0.0681686, 0.75, 0, 0, 0
691, 19913, -1, 64, 0.00671952, 0.0152367, -1.1755, -0.0128684, 0.0190887, -0.0639323, 0.0679509, 0.744, 0, 0, 0
692, 19957.8, -1, 64, 0.00616101, 0.0141546, -1.17466, -0.0110911, 0.0153039, -0.0646294, 0.0673363, 0.738, 0, 0, 0
693, 19995.9, -1, 64, 0.00581195, 0.0131947, -1.17396, -0.012127, 0.00892191, -0.0531267, 0.0552188, 0.736, 0, 0, 0
694, 20037.9, -1, 64, 0.00521853, 0.0123569, -1.17352, -0.0116167, 0.00519757, -0.0504927, 0.0520718, 0.733, 0, 0, 0
695, 20083.9, -1, 64, 0.00361283, 0.0119206, -1.1729, -0.00972363, 0.00604934, -0.050476, 0.0517588, 0.728, 0, 0, 0
696, 20128.1, -1, 64, 0.00279253, 0.0117635, -1.17234, -0.009038, 0.0119219, -0.0319347, 0.0352654, 0.726, 0, 0, 0
697, 20169.9, -1, 64, 0.0034383, 0.0111352, -1.17194, -0.0120676, 0.0172233, -0.0290145, 0.0358345, 0.723, 0, 0, 0
698, 20212.4, -1, 64, 0.00471239, 0.0109083, -1.17155, -0.01094, 0.0140801, -0.0238222, 0.0297562, 0.72, 0, 0, 0
699, 20258.5, -1, 64, 0.00560251, 0.0114145, -1.17152, -0.0120818, 0.00981289, -0.0182189, 0.0239622, 0.718, 0, 0, 0
700, 20302.3, -1, 64, 0.00479966, 0.0117984, -1.17129, -0.0206055, 0.0139193, -0.00342915, 0.0251017, 0.718, 0, 0, 0
701, 20346.7, -1, 64, 0.00438078, 0.0128631, -1.17077, -0.00909469, 0.00822159, 0.00465103, 0.0131126, 0.717, 0, 0, 0
702, 20383.5, -1, 64, 0.00436332, 0.0133692, -1.17085, -0.0141641, 0.0124981, 0.00775696, 0.0204205, 0.716, 0, 0, 0
703, 20422.2, -1, 64, 0.00481711, 0.0136659, -1.17042, -0.0275226, 0.0125877, 0.0105237, 0.032042, 0.715, 0, 0, 0
704, 20460.6, -1, 64, 0.00549779, 0.0141895, -1.17024, -0.016999, 0.00965821, 0.0161776, 0.0253764, 0.715, 0, 0, 0
705, 20499.1, -1, 64, 0.00644026, 0.0143815, -1.17089, -0.0284839, 0.0144712, 0.021127, 0.0383027, 0.715, 0, 0, 0
706, 20537.3, -1, 64, 0.0066148, 0.0148178, -1.17026, -0.0144393, 0.0076543, 0.0269662, 0.0315318, 0.715, 0, 0, 0
707, 20575.8, -1, 64, 0.00675442, 0.0152542, -1.17009, -0.00695682, 0.00281846, 0.0335467, 0.0343762, 0.716, 0, 0, 0
708, 20618.3, -1, 64, 0.00626573, 0.014556, -1.16996, -0.00178612, 0.000592124, 0.0387939, 0.0388395, 0.718, 0, 0, 0
709, 20656, -1, 64, 0.00623083, 0.0137183, -1.16995, 0.0038254, -0.000678229, 0.0426549, 0.0428315, 0.719, 0, 0, 0
