#BEGIN frameIdx[0], TimeInSec[1], FlagAnimationStart[2], batteryPercent[3], Roll[4], Pitch[5], Yaw[6], Vx[7], Vy[8], Vz[9], Vmag[10], Altitude[11], PosLatitude[12], PosLongitude[13], PosElevation[14]
219, 3.921, -1, 64, -0.0031765, 0.00279253, 1.7491, 0.00838079, -0.00224023, 0.00261881, 0.0090617, 0.743, 0, 0, 0
220, 49.245, -1, 64, -0.00322886, 0.00230383, 1.74933, 0.0179881, -0.0110129, 0.00556175, 0.0218126, 0.744, 0, 0, 0
221, 98.431, -1, 64, -0.00371755, 0.00214675, 1.74898, 0.014786, -0.00317525, 0.00463242, 0.0158166, 0.743, 0, 0, 0
222, 143.934, -1, 64, -0.00472984, 0.00178024, 1.74906, 0.0173409, 0.0018311, -0.00227956, 0.0175856, 0.74, 0, 0, 0
223, 182.524, -1, 64, -0.00479966, 0.0010472, 1.7491, 0.02454, -0.00275502, -0.0141471, 0.0284595, 0.736, 0, 0, 0
224, 228.46, -1, 64, -0.00469494, -0.00010472, 1.7492, 0.0231396, -0.002619, -0.00166838, 0.023347, 0.734, 0, 0, 0
225, 268.863, -1, 64, -0.00453786, -0.000680678, 1.74905, 0.0242178, 0.00605698, 0.00411145, 0.0253001, 0.734, 0, 0, 0
226, 311.419, -1, 64, -0.0047473, -0.00146608, 1.74962, 0.0269661, 0.00577625, 0.0142869, 0.0310588, 0.734, 0, 0, 0
227, 351.177, -1, 64, -0.00314159, -0.00205949, 1.74917, 0.0184304, 0.0106146, 0.0250225, 0.0328401, 0.736, 0, 0, 0
228, 394.528, -1, 64, -0.00153589, -0.00221657, 1.74898, 0.0179996, 0.0202573, 0.0294608, 0.0400285, 0.738, 0, 0, 0
229, 434.569, -1, 64, -0.000383972, -0.00188496, 1.74915, 0.00509268, 0.0129561, 0.0247956, 0.0284362, 0.738, 0, 0, 0
230, 474.608, -1, 64, -8.72665e-05, -0.00125664, 1.74892, 0.00716321, 0.0110076, 0.023613, 0.0270195, 0.739, 0, 0, 0
231, 514.662, -1, 64, -5.23599e-05, -0.000366519, 1.74924, 0.00438847, 0.00901334, 0.0262685, 0.0281164, 0.742, 0, 0, 0
232, 559.107, -1, 64, 0.000680678, 0.000994838, 1.74882, -0.00632123, 0.0111203, 0.0221026, 0.0255371, 0.743, 0, 0, 0
233, 605.419, -1, 64, 0.00118682, 0.0026529, 1.74885, 0.00549387, 0.0125609, 0.0233379, 0.0270669, 0.745, 0, 0, 0
234, 650.962, -1, 64, 0.000488692, 0.00342085, 1.74865, 0.00542378, 0.00636709, 0.0163894, 0.0184003, 0.746, 0, 0, 0
235, 698.383, -1, 64, -0.000541052, 0.0026529, 1.74854, 0.00574636, -0.00144158, 0.00369131, 0.0069803, 0.745, 0, 0, 0
236, 744.195, -1, 64, -0.0010821, 0.00190241, 1.74889, -0.000374871, 0.00529472, -0.00460625, 0.00702796, 0.744, 0, 0, 0
237, 796.708, -1, 64, -0.00144862, 0.00132645, 1.74882, 0.00117184, 0.0025829, -0.0114906, 0.0118355, 0.743, 0, 0, 0
238, 846.301, -1, 64, -0.00155334, 0.00167552, 1.74861, 0.00416807, -0.00160707, -0.0126303, 0.013397, 0.742, 0, 0, 0
239, 890.377, -1, 64, -0.00167552, 0.00216421, 1.7487, 0.00452832, 1.24434e-05, -0.0169135, 0.0175092, 0.741, 0, 0, 0
240, 930.423, -1, 64, -0.00233874, 0.00185005, 1.74854, 0.00853852, 0.00394575, -0.0168822, 0.0193257, 0.74, 0, 0, 0
241, 969.975, -1, 64, -0.00253073, 0.00120428, 1.74849, 0.0133629, -0.00402164, -0.00730226, 0.01575, 0.742, 0, 0, 0
242, 1010.56, -1, 64, -0.00193732, 0.00155334, 1.74863, 0.00412756, 0.00690466, -0.0127578, 0.0150822, 0.74, 0, 0, 0
243, 1050.85, -1, 64, -0.00171042, 0.00230383, 1.74854, 0.00357852, 0.0123225, -0.012451, 0.0178795, 0.74, 0, 0, 0
244, 1065.29, -1, 64, -0.00158825, 0.00272271, 1.74851, 0.00716994, 0.0106975, -0.0124448, 0.0179085, 0.74, 0, 0, 0
245, 1105.65, -1, 64, -0.000558505, 0.00383972, 1.74854, 0.010292, 0.0118159, -0.0100039, 0.0185908, 0.74, 0, 0, 0
246, 1146.33, -1, 64, -0.000331613, 0.00418879, 1.74873, 0.00932545, 0.0149283, -0.0100884, 0.0202878, 0.739, 0, 0, 0
247, 1186.45, -1, 64, 0.000977384, 0.00509636, 1.74885, 0.0122625, 0.013099, -0.0262733, 0.0318157, 0.735, 0, 0, 0
248, 1227.02, -1, 64, 0.00146608, 0.00511381, 1.74875, 0.0156112, 0.00747694, -0.0228269, 0.0286475, 0.734, 0, 0, 0
249, 1268.68, -1, 64, 0.00172788, 0.00481711, 1.7491, 0.0131642, 0.00839898, -0.0182692, 0.0240334, 0.733, 0, 0, 0
250, 1313.27, -1, 64, 0.00141372, 0.00441568, 1.74896, 0.000782071, 0.00567069, -0.0147641, 0.015835, 0.733, 0, 0, 0
251, 1359.56, -1, 64, 0.00218166, 0.00535816, 1.7492, 0.00737596, 0.00174671, -0.0215253, 0.0228209, 0.729, 0, 0, 0
252, 1404.03, -1, 64, 0.00106465, 0.00616101, 1.74961, 0.00711339, -0.00946733, -0.0153173, 0.019361, 0.729, 0, 0, 0
253, 1447.4, -1, 64, -8.72665e-05, 0.0066148, 1.74968, 0.00698725, -0.00423243, -0.017331, 0.0191599, 0.727, 0, 0, 0
254, 1487.58, -1, 64, -0.0010472, 0.00759218, 1.74957, 0.0184557, 0.000991323, -0.0139227, 0.0231395, 0.725, 0, 0, 0
255, 1532.17, -1, 64, -0.00137881, 0.00767945, 1.75009, 0.0176759, 0.00536053, -0.00631235, 0.0195197, 0.725, 0, 0, 0
256, 1564.26, -1, 64, -0.000715585, 0.00734784, 1.74964, 0.015731, 0.00102808, 0.0026397, 0.0159841, 0.726, 0, 0, 0
257, 1595.14, -1, 64, -0.000331613, 0.00659734, 1.74955, 0.0174876, 0.0059583, 0.00425388, 0.0189582, 0.726, 0, 0, 0
258, 1625.19, -1, 64, -0.00015708, 0.00614356, 1.74954, 0.0211033, 0.00823547, 0.00694406, 0.0236937, 0.726, 0, 0, 0
259, 1655.7, -1, 64, 0.000331613, 0.00575959, 1.74992, 0.0211611, 0.010792, 0.0172784, 0.0293735, 0.728, 0, 0, 0
260, 1686.37, -1, 64, 0.000541052, 0.00537561, 1.74959, 0.0169366, 0.0041125, 0.0199389, 0.0264825, 0.729, 0, 0, 0
261, 1717.54, -1, 64, 0.00139626, 0.00570723, 1.74983, 0.0126291, 0.0143708, 0.01973, 0.0274825, 0.73, 0, 0, 0
262, 1752.82, -1, 64, 0.00289725, 0.00612611, 1.74974, 0.019481, 0.0241497, 0.0198155, 0.0368153, 0.73, 0, 0, 0
263, 1779.56, -1, 64, 0.00382227, 0.00621337, 1.75011, 0.0280764, 0.0130309, 0.0265344, 0.0407696, 0.733, 0, 0, 0
264, 1817.35, -1, 64, 0.00469494, 0.00645772, 1.74999, 0.0184965, 0.00538802, 0.0248726, 0.031461, 0.733, 0, 0, 0
265, 1842.27, -1, 64, 0.00481711, 0.0068766, 1.74933, 0.0265379, 0.00982339, 0.0173299, 0.0331826, 0.733, 0, 0, 0
266, 1877.38, -1, 64, 0.00459022, 0.0066148, 1.75037, 0.032049, 0.00152226, 0.0106082, 0.0337934, 0.732, 0, 0, 0
267, 1902.52, -1, 64, 0.0042586, 0.00623083, 1.74999, 0.0248505, -0.000364356, 0.0108998, 0.0271383, 0.732, 0, 0, 0
268, 1933.99, -1, 64, 0.003735, 0.00523599, 1.75006, 0.0167336, 0.00301209, 0.0119711, 0.0207941, 0.733, 0, 0, 0
269, 1963.02, -1, 64, 0.00376991, 0.00479966, 1.7502, 0.0217316, 0.00285268, 0.00785506, 0.0232831, 0.732, 0, 0, 0
270, 1992.72, -1, 64, 0.00371755, 0.00450295, 1.75006, 0.0230997, 0.00354573, 0.00873398, 0.0249489, 0.732, 0, 0, 0
271, 2022.96, -1, 64, 0.00303687, 0.00406662, 1.75036, 0.0216393, 0.00654318, 0.0123756, 0.0257726, 0.733, 0, 0, 0
272, 2057.57, -1, 64, 0.00207694, 0.00205949, 1.74957, 0.0175244, 0.00957404, 0.0156368, 0.0253629, 0.734, 0, 0, 0
273, 2086.09, -1, 64, 0.00237365, -0.00230383, 1.74994, 0.0261595, 0.00910201, 0.0121004, 0.0302256, 0.734, 0, 0, 0
274, 2124.82, -1, 64, 0.00275762, -0.0060912, 1.74992, 0.0337745, 0.00878431, 0.0135213, 0.037426, 0.734, 0, 0, 0
275, 2147.71, -1, 64, 0.00258309, -0.0092677, 1.74955, 0.0252905, 0.00651076, 0.0141854, 0.0297191, 0.735, 0, 0, 0
276, 2176.05, -1, 64, 0.00277507, -0.010821, 1.74992, 0.0216896, 0.00931561, 0.00970824, 0.0255239, 0.734, 0, 0, 0
277, 2206.29, -1, 64, 0.00312414, -0.0128107, 1.74943, 0.0175526, 0.0110412, 0.0152948, 0.0257669, 0.735, 0, 0, 0
278, 2242.3, -1, 64, 0.00324631, -0.0134914, 1.74945, 0.00419371, 0.0116008, 0.0104012, 0.0161353, 0.735, 0, 0, 0
279, 2267.69, -1, 64, 0.0039619, -0.0134565, 1.74961, 0.00472044, 0.00615024, 0.0109754, 0.0134375, 0.735, 0, 0, 0
280, 2299.64, -1, 64, 0.00439823, -0.0131423, 1.74889, 0.00757537, -0.00807945, 0.0217994, 0.0244515, 0.738, 0, 0, 0
281, 2333.25, -1, 64, 0.00432842, -0.0121475, 1.7495, -0.0103186, -0.00649071, 0.0213617, 0.0245952, 0.738, 0, 0, 0
282, 2364.34, -1, 64, 0.00347321, -0.0112399, 1.74892, -0.0134756, -0.00794347, 0.0204438, 0.0257418, 0.739, 0, 0, 0
283, 2391.43, -1, 64, 0.00246091, -0.00970403, 1.74929, -0.00952734, -0.00180757, 0.0191706, 0.0214837, 0.74, 0, 0, 0
284, 2421.65, -1, 64, 0.00193732, -0.00816814, 1.7492, -0.0044282, 0.00368833, 0.0233562, 0.0240567, 0.742, 0, 0, 0
285, 2451.4, -1, 64, 0.00185005, -0.00736529, 1.7492, -0.00826244, -0.00500045, 0.0166015, 0.0192063, 0.741, 0, 0, 0
286, 2484.98, -1, 64, 0.00141372, -0.00637045, 1.74929, -0.0135987, 0.000246048, 0.0198318, 0.0240475, 0.742, 0, 0, 0
287, 2512.49, -1, 64, 0.00113446, -0.00406662, 1.74859, -0.0070558, 0.00542761, 0.0181654, 0.0202293, 0.743, 0, 0, 0
288, 2547.41, -1, 64, 0.000837758, 0.000296706, 1.74903, -0.0352715, 0.00478589, 0.0139718, 0.0382386, 0.743, 0, 0, 0
289, 2580.55, -1, 64, 0.000366519, 0.0106465, 1.74905, -0.0343682, -0.0149831, 0.0128218, 0.039624, 0.743, 0, 0, 0
290, 2607.55, -1, 64, 0.00010472, 0.0215374, 1.74912, -0.0361886, -0.00314422, 0.0121619, 0.0383069, 0.744, 0, 0, 0
291, 2638.48, -1, 64, 0.000506145, 0.0330914, 1.74922, -0.0212173, -0.00518975, 0.0114132, 0.0246448, 0.744, 0, 0, 0
292, 2667.33, -1, 64, 0.00139626, 0.0446804, 1.74933, -0.0120041, -0.00858905, 0.00707383, 0.016368, 0.743, 0, 0, 0
293, 2700.41, -1, 64, 0.00164061, 0.0575261, 1.74948, -0.0406988, 1.52405e-06, 0.00900026, 0.0416821, 0.744, 0, 0, 0
294, 2727.1, -1, 64, 0.00176278, 0.0643328, 1.7494, -0.0150348, 0.00430633, 0.00294745, 0.0159147, 0.743, 0, 0, 0
295, 2760.68, -1, 64, 0.000471239, 0.0770737, 1.74974, -0.00894103, 0.00469878, 0.0063683, 0.0119405, 0.744, 0, 0, 0
296, 2794.63, -1, 64, 1.74533e-05, 0.0837234, 1.74948, 0.0358572, -0.0039573, 0.00637353, 0.0366336, 0.744, 0, 0, 0
297, 2825.66, -1, 64, 1.74533e-05, 0.0875981, 1.74966, 0.044555, -0.00272121, 0.00647196, 0.0451048, 0.744, 0, 0, 0
298, 2856.76, -1, 64, -1.74533e-05, 0.0933926, 1.74966, 0.0982866, 0.00885088, -9.1618e-05, 0.0986844, 0.743, 0, 0, 0
299, 2883.2, -1, 64, -0.000488692, 0.0972497, 1.74933, 0.120692, 0.0058041, 0.000103697, 0.120831, 0.743, 0, 0, 0
300, 2916.71, -1, 64, -0.000994838, 0.100705, 1.7495, 0.145892, -0.00284119, 0.00127346, 0.145925, 0.743, 0, 0, 0
301, 2945.31, -1, 64, -0.00137881, 0.102311, 1.7494, 0.147053, -0.00140893, 0.00960272, 0.147373, 0.744, 0, 0, 0
302, 2974.31, -1, 64, -0.00174533, 0.10376, 1.74905, 0.207778, 0.000178773, 0.0236595, 0.209121, 0.747, 0, 0, 0
303, 3011.43, -1, 64, -0.00197222, 0.106133, 1.74931, 0.214781, 0.0403738, 0.0218696, 0.219635, 0.749, 0, 0, 0
304, 3037.95, -1, 64, -0.00191986, 0.106709, 1.74912, 0.205632, 0.0714359, 0.020059, 0.21861, 0.749, 0, 0, 0
305, 3067.4, -1, 64, -0.00141372, 0.106884, 1.7492, 0.273542, 0.0361434, 0.0133681, 0.276243, 0.749, 0, 0, 0
306, 3104.51, -1, 64, -0.000750492, 0.106483, 1.74903, 0.302491, 0.0346303, 0.011794, 0.304696, 0.75, 0, 0, 0
307, 3130.62, -1, 64, -0.000401426, 0.106099, 1.74905, 0.336783, 0.0271969, 0.00920192, 0.338004, 0.75, 0, 0, 0
308, 3167.86, -1, 64, -0.000191986, 0.105749, 1.74919, 0.368376, 0.0173498, 0.0131645, 0.369019, 0.751, 0, 0, 0
309, 3192.25, -1, 64, 0.000244346, 0.104877, 1.74898, 0.389392, 0.0358926, 0.0110305, 0.391198, 0.751, 0, 0, 0
310, 3223.16, -1, 64, 0.000418879, 0.104074, 1.74912, 0.421398, 0.0154144, 0.0050215, 0.42171, 0.751, 0, 0, 0
311, 3255.65, -1, 64, 0.000663225, 0.103009, 1.74947, 0.464165, 0.00562083, -0.00487265, 0.464225, 0.749, 0, 0, 0
312, 3282.76, -1, 64, 0.000506145, 0.102067, 1.74912, 0.490345, 0.0046404, -0.00443051, 0.490387, 0.749, 0, 0, 0
313, 3319.24, -1, 64, 0.000331613, 0.100217, 1.74947, 0.514358, 0.025378, 0.00196854, 0.514987, 0.75, 0, 0, 0
314, 3344.03, -1, 64, -3.49066e-05, 0.099379, 1.74959, 0.532032, 0.0176714, 0.00351533, 0.532337, 0.751, 0, 0, 0
315, 3374.15, -1, 64, -0.000471239, 0.098646, 1.74962, 0.543481, 0.00697246, -0.00476221, 0.543546, 0.75, 0, 0, 0
316, 3405.33, -1, 64, -0.000767945, 0.0968832, 1.74988, 0.571999, 0.00255514, -0.00441849, 0.572022, 0.75, 0, 0, 0
317, 3442.8, -1, 64, -0.000523599, 0.0957139, 1.74988, 0.608962, 0.0016791, -0.00364628, 0.608975, 0.749, 0, 0, 0
318, 3471.18, -1, 64, -0.000244346, 0.0943001, 1.75009, 0.657666, 0.00409005, -0.00555257, 0.657702, 0.749, 0, 0, 0
319, 3502.2, -1, 64, -0.000191986, 0.0930086, 1.75011, 0.666415, -0.00344225, -0.00464811, 0.66644, 0.749, 0, 0, 0
320, 3534.19, -1, 64, -0.000523599, 0.0923628, 1.75027, 0.667464, -0.00570803, -0.0123344, 0.667602, 0.747, 0, 0, 0
321, 3559.67, -1, 64, -0.000820305, 0.09156, 1.75018, 0.714807, -0.0061263, -0.0101021, 0.714905, 0.747, 0, 0, 0
322, 3596.02, -1, 64, -0.000610865, 0.09156, 1.75013, 0.753609, -0.0149765, -0.00832574, 0.753804, 0.746, 0, 0, 0
323, 3620.23, -1, 64, -0.000488692, 0.0914553, 1.75016, 0.75082, -0.0117597, -0.00678808, 0.750943, 0.746, 0, 0, 0
324, 3657.07, -1, 64, -0.000366519, 0.0903731, 1.75041, 0.746379, 0.0245737, 0.00700143, 0.746816, 0.749, 0, 0, 0
325, 3685.22, -1, 64, -0.000471239, 0.0903382, 1.75008, 0.774076, 0.0200308, 0.00669427, 0.774364, 0.749, 0, 0, 0
326, 3713.38, -1, 64, -0.000872665, 0.0896401, 1.75013, 0.813148, 0.011155, 0.00608158, 0.813247, 0.75, 0, 0, 0
327, 3743.18, -1, 64, -0.00127409, 0.0891514, 1.74992, 0.76531, 0.0234605, 0.0102679, 0.765739, 0.751, 0, 0, 0
328, 3774.07, -1, 64, -0.0015708, 0.0887849, 1.74976, 0.798654, 0.0199191, 0.00357721, 0.798911, 0.75, 0, 0, 0
329, 3804.64, -1, 64, -0.00226893, 0.087825, 1.74985, 0.851188, 0.01079, 0.0071632, 0.851286, 0.751, 0, 0, 0
330, 3834.89, -1, 64, -0.00263545, 0.0865334, 1.74969, 0.878898, 0.0185932, 0.00555146, 0.879112, 0.751, 0, 0, 0
331, 3871.43, -1, 64, -0.0029147, 0.0852244, 1.74959, 0.926624, 0.0112328, 0.0144915, 0.926805, 0.754, 0, 0, 0
332, 3896.42, -1, 64, -0.00338594, 0.0830079, 1.7498, 0.857469, -0.00862615, 0.0173867, 0.857689, 0.755, 0, 0, 0
333, 3932.29, -1, 64, -0.00328122, 0.0819607, 1.74948, 0.850057, -0.00827037, 0.0142306, 0.850217, 0.756, 0, 0, 0
334, 3960.45, -1, 64, -0.00301942, 0.0812974, 1.74969, 0.873671, 0.00288638, 0.0148662, 0.873803, 0.757, 0, 0, 0
335, 3990.24, -1, 64, -0.00286234, 0.0810531, 1.7494, 0.919534, 0.0120629, 0.0123764, 0.919697, 0.758, 0, 0, 0
336, 4019.05, -1, 64, -0.00214675, 0.0807215, 1.74947, 0.89183, 0.018439, 0.0132458, 0.892119, 0.759, 0, 0, 0
337, 4054.97, -1, 64, -0.00197222, 0.0803201, 1.74926, 0.947617, 0.0224068, 0.00750998, 0.947912, 0.759, 0, 0, 0
338, 4080.65, -1, 64, -0.00267035, 0.0795347, 1.74922, 0.955824, 0.022762, 0.00619536, 0.956115, 0.76, 0, 0, 0
339, 4117.32, -1, 64, -0.0026529, 0.0792379, 1.74973, 0.961351, 0.0286107, 0.0025163, 0.96178, 0.76, 0, 0, 0
340, 4142.69, -1, 64, -0.00260054, 0.0788191, 1.74936, 0.969377, 0.0320357, 0.0109034, 0.969968, 0.762, 0, 0, 0
341, 4176.56, -1, 64, -0.00254818, 0.0792903, 1.74913, 0.998019, 0.0283317, 0.0169296, 0.998565, 0.764, 0, 0, 0
342, 4204.62, -1, 64, -0.00162316, 0.0804946, 1.74945, 1.05975, 0.0453511, 0.00894655, 1.06076, 0.765, 0, 0, 0
343, 4239.15, -1, 64, -0.000680678, 0.0811927, 1.74905, 1.06027, 0.0604631, 0.00383128, 1.062, 0.765, 0, 0, 0
344, 4265.61, -1, 64, 0, 0.0811578, 1.74927, 1.04047, 0.0750075, 0.00239303, 1.04318, 0.766, 0, 0, 0
345, 4296.36, -1, 64, 0, 0.0809135, 1.74915, 1.07313, 0.0932684, 0.00850243, 1.07721, 0.767, 0, 0, 0
346, 4325.75, -1, 64, -0.000715585, 0.0808611, 1.74924, 1.16682, 0.0792497, 0.00165816, 1.16951, 0.768, 0, 0, 0
347, 4358.1, -1, 64, -0.00127409, 0.0813672, 1.75008, 1.2201, 0.0636996, -0.00367942, 1.22176, 0.768, 0, 0, 0
348, 4385.91, -1, 64, -0.00125664, 0.0817163, 1.74899, 1.22504, 0.0643907, 0.00393288, 1.22673, 0.771, 0, 0, 0
349, 4416.43, -1, 64, -0.00109956, 0.0817687, 1.74954, 1.15055, 0.068982, 0.00373136, 1.15262, 0.771, 0, 0, 0
350, 4448.52, -1, 64, -0.000977384, 0.0817687, 1.74961, 1.19993, 0.0563514, 0.00489371, 1.20127, 0.773, 0, 0, 0
351, 4482.11, -1, 64, -0.000698132, 0.082205, 1.74948, 1.20949, 0.0521484, -0.00230597, 1.21062, 0.773, 0, 0, 0
352, 4508.51, -1, 64, -0.000593412, 0.0829206, 1.74985, 1.2137, 0.0731233, -0.00609808, 1.21592, 0.773, 0, 0, 0
353, 4543.52, -1, 64, -0.000663225, 0.0833395, 1.74973, 1.18885, 0.095412, -0.00765897, 1.1927, 0.774, 0, 0, 0
354, 4569.05, -1, 64, -0.000349066, 0.0838456, 1.74959, 1.16972, 0.112163, -0.0128133, 1.17515, 0.774, 0, 0, 0
355, 4599.37, -1, 64, -0.00125664, 0.0839154, 1.74959, 1.20226, 0.129969, -0.0101378, 1.20931, 0.775, 0, 0, 0
356, 4630.27, -1, 64, -0.00164061, 0.0836885, 1.74985, 1.2051, 0.128187, -0.0116363, 1.21196, 0.776, 0, 0, 0
357, 4661.64, -1, 64, -0.00151844, 0.0836711, 1.74966, 1.2085, 0.1267, -0.00563635, 1.21514, 0.778, 0, 0, 0
358, 4700.84, -1, 64, -0.000436332, 0.0851895, 1.75008, 1.21227, 0.123154, -0.00577138, 1.21853, 0.78, 0, 0, 0
359, 4742.11, -1, 64, -0.000401426, 0.0860447, 1.74987, 1.21596, 0.121607, 0.000293515, 1.22203, 0.782, 0, 0, 0
360, 4780.1, -1, 64, -0.00113446, 0.0866731, 1.74987, 1.22135, 0.11827, 0.0014161, 1.22706, 0.785, 0, 0, 0
361, 4823.39, -1, 64, -0.000733038, 0.087982, 1.75016, 1.24827, 0.107761, -0.00550649, 1.25292, 0.786, 0, 0, 0
362, 4868.86, -1, 64, 0.000506145, 0.0888722, 1.75004, 1.37558, 0.0891928, -0.0107985, 1.37851, 0.787, 0, 0, 0
363, 4909.95, -1, 64, 0.000191986, 0.0889943, 1.75001, 1.37679, 0.0862086, -0.0236512, 1.37969, 0.787, 0, 0, 0
364, 4952.54, -1, 64, -0.00162316, 0.0881915, 1.74995, 1.37613, 0.0843138, -0.0283582, 1.379, 0.787, 0, 0, 0
365, 4974.73, -1, 64, -0.00274017, 0.087441, 1.7498, 1.37653, 0.0838279, -0.0209812, 1.37924, 0.789, 0, 0, 0
366, 5022.32, -1, 64, -0.00366519, 0.0871094, 1.74922, 1.37598, 0.0836981, -0.022081, 1.3787, 0.79, 0, 0, 0
367, 5071.68, -1, 64, -0.00485202, 0.0868999, 1.74927, 1.37405, 0.0832361, -0.0367635, 1.37705, 0.789, 0, 0, 0
368, 5115.94, -1, 64, -0.00445059, 0.0860971, 1.74838, 1.37282, 0.084375, -0.0364974, 1.37589, 0.789, 0, 0, 0
369, 5166.61, -1, 64, -0.00111701, 0.0846136, 1.74856, 1.37007, 0.0825622, -0.0392769, 1.37312, 0.79, 0, 0, 0
370, 5213.03, -1, 64, 0.0013439, 0.0821701, 1.74875, 1.36717, 0.0791179, -0.0296253, 1.36978, 0.792, 0, 0, 0
371, 5263.01, -1, 64, 0.00403171, 0.0804422, 1.74819, 1.35869, 0.0749206, -0.0450957, 1.3615, 0.789, 0, 0, 0
372, 5310.9, -1, 64, 0.00640536, 0.0820828, 1.74901, 1.35518, 0.0687733, -0.0390124, 1.35748, 0.791, 0, 0, 0
373, 5363.54, -1, 64, 0.00671952, 0.0849277, 1.74896, 1.35201, 0.064108, -0.0413774, 1.35416, 0.791, 0, 0, 0
374, 5403.66, -1, 64, 0.00603884, 0.0859575, 1.75001, 1.34955, 0.0574466, -0.0446052, 1.35151, 0.792, 0, 0, 0
375, 5441.04, -1, 64, 0.0042237, 0.08594, 1.75004, 1.3482, 0.0548529, -0.0410807, 1.34994, 0.793, 0, 0, 0
376, 5479.7, -1, 64, -0.000331613, 0.0859749, 1.75079, 1.34686, 0.0522642, -0.0424076, 1.34854, 0.793, 0, 0, 0
377, 5518.66, -1, 64, -0.00207694, 0.0858877, 1.75013, 1.34599, 0.05377, -0.0365514, 1.34756, 0.795, 0, 0, 0
378, 5556.76, -1, 64, -0.000750492, 0.0877901, 1.7518, 1.34462, 0.0506515, -0.0338462, 1.346, 0.797, 0, 0, 0
379, 5594.5, -1, 64, 6.98132e-05, 0.0893783, 1.75159, 1.34492, 0.0497312, -0.0253068, 1.34607, 0.8, 0, 0, 0
380, 5620.82, -1, 64, 0.00118682, 0.0909317, 1.75243, 1.34648, 0.0464913, -0.0140151, 1.34736, 0.804, 0, 0, 0
381, 5663.9, -1, 64, 0.00228638, 0.0927468, 1.75247, 1.34864, 0.0439022, -0.0079999, 1.34938, 0.807, 0, 0, 0
382, 5713.63, -1, 64, 0.00441568, 0.0673872, 1.75297, 1.34223, 0.0396664, -0.0133292, 1.34288, 0.811, 0, 0, 0
383, 5755.03, -1, 64, 0.00366519, 0.0311192, 1.75205, 1.3176, 0.0371556, -0.0113211, 1.31817, 0.815, 0, 0, 0
384, 5799.13, -1, 64, 0.00235619, 0.000122173, 1.75262, 1.28215, 0.0354607, -0.00884792, 1.28268, 0.82, 0, 0, 0
385, 5845.18, -1, 64, 0.00275762, -0.0243822, 1.75186, 1.23666, 0.0348402, -0.00957614, 1.23719, 0.825, 0, 0, 0
386, 5883.06, -1, 64, 0.00336849, -0.0468795, 1.75109, 1.18335, 0.0333365, -0.0116675, 1.18387, 0.831, 0, 0, 0
387, 5920.65, -1, 64, 0.00321141, -0.0616276, 1.75088, 1.14163, 0.0320278, -0.0053924, 1.14209, 0.836, 0, 0, 0
388, 5961.33, -1, 64, 0.00202458, -0.0798488, 1.7502, 1.07385, 0.0316321, -0.0111809, 1.07437, 0.842, 0, 0, 0
389, 6002.24, -1, 64, 0.00233874, -0.0908793, 1.74915, 1.02691, 0.0321906, -0.00850113, 1.02745, 0.847, 0, 0, 0
390, 6048.06, -1, 64, 0.00190241, -0.110654, 1.74894, 0.933871, 0.0308389, -0.0277415, 0.934792, 0.851, 0, 0, 0
391, 6094.92, -1, 64, 0.000802851, -0.12254, 1.74849, 0.851031, 0.0310019, -0.0195118, 0.851819, 0.859, 0, 0, 0
392, 6123.16, -1, 64, 0.0010472, -0.125437, 1.74837, 0.824074, 0.0313396, -0.0335878, 0.825353, 0.858, 0, 0, 0
393, 6153.67, -1, 64, 0.0016057, -0.131127, 1.74762, 0.749719, 0.0318792, -0.0485789, 0.751967, 0.86, 0, 0, 0
394, 6181.44, -1, 64, 0.00256563, -0.13364, 1.74753, 0.687906, 0.0321055, -0.0768826, 0.692934, 0.858, 0, 0, 0
395, 6211.5, -1, 64, 0.00301942, -0.133937, 1.74692, 0.631002, 0.0315107, -0.0710724, 0.635773, 0.86, 0, 0, 0
396, 6241.66, -1, 64, 0.00254818, -0.134024, 1.7472, 0.58793, 0.030307, -0.0898533, 0.595529, 0.858, 0, 0, 0
397, 6277.29, -1, 64, 0.00230383, -0.132802, 1.74622, 0.516439, 0.0300544, -0.100258, 0.526939, 0.858, 0, 0, 0
398, 6303.22, -1, 64, 0.00268781, -0.132017, 1.74632, 0.481651, 0.0291835, -0.102166, 0.493231, 0.858, 0, 0, 0
399, 6339.17, -1, 64, 0.00279253, -0.129172, 1.74578, 0.431003, 0.0280049, -0.120902, 0.448514, 0.854, 0, 0, 0
400, 6384.73, -1, 64, 0.00185005, -0.122208, 1.74557, 0.353677, 0.0266752, -0.169681, 0.39318, 0.839, 0, 0, 0
401, 6423.23, -1, 64, 0.00015708, -0.115558, 1.74554, 0.290728, 0.0259262, -0.178001, 0.341876, 0.832, 0, 0, 0
402, 6461.7, -1, 64, -0.000942478, -0.106517, 1.74425, 0.224403, 0.0257653, -0.184504, 0.291654, 0.824, 0, 0, 0
403, 6499.85, -1, 64, -0.00146608, -0.0995885, 1.745, 0.182963, 0.0249527, -0.187012, 0.262814, 0.818, 0, 0, 0
404, 6541.17, -1, 64, -0.000191986, -0.0870919, 1.74524, 0.407052, 0.0158657, -0.187906, 0.448611, 0.81, 0, 0, 0
405, 6579.86, -1, 64, 0.000663225, -0.0816465, 1.74545, 0.838024, -0.0165895, -0.187085, 0.858813, 0.803, 0, 0, 0
406, 6626.74, -1, 64, -0.00102974, -0.0930086, 1.74849, 1.0746, -0.00950098, -0.181927, 1.08993, 0.793, 0, 0, 0
407, 6673.15, -1, 64, 0.00684169, -0.155614, 1.75723, 1.12411, 0.0412823, -0.173534, 1.13818, 0.785, 0, 0, 0
408, 6721.87, -1, 64, 0.0225497, -0.160989, 1.76009, 0.956703, 0.0415426, -0.165636, 0.971824, 0.779, 0, 0, 0
409, 6760.08, -1, 64, 0.0298975, -0.163834, 1.77174, 0.749813, 0.023396, -0.159101, 0.766864, 0.771, 0, 0, 0
410, 6804.08, -1, 64, 0.0374548, -0.142628, 1.77729, 0.636207, 0.0196746, -0.146896, 0.653242, 0.766, 0, 0, 0
411, 6856.39, -1, 64, 0.0245742, -0.082973, 1.78359, 0.544926, -0.00608724, -0.135048, 0.561444, 0.76, 0, 0, 0
412, 6906.73, -1, 64, 0.0128107, -0.0396015, 1.78357, 0.533709, 0.00436299, -0.125862, 0.548366, 0.754, 0, 0, 0
413, 6956.85, -1, 64, 0.00881391, -0.00685914, 1.78127, 0.536927, 0.0152882, -0.114637, 0.549241, 0.749, 0, 0, 0
414, 7000.8, -1, 64, 0.00815069, 0.0109083, 1.77936, 0.528621, 0.0120054, -0.110148, 0.540108, 0.744, 0, 0, 0
415, 7045.75, -1, 64, 0.00764454, 0.0248535, 1.7764, 0.527069, 0.00971688, -0.106611, 0.537831, 0.738, 0, 0, 0
416, 7098.81, -1, 64, 0.00497419, 0.0336499, 1.77238, 0.535087, 0.00485136, -0.0997081, 0.544319, 0.731, 0, 0, 0
417, 7142.52, -1, 64, 0.000401426, 0.0319046, 1.76996, 0.541509, 0.00459094, -0.0874729, 0.548548, 0.731, 0, 0, 0
418, 7180.69, -1, 64, -0.000471239, 0.0292866, 1.76811, 0.54499, 0.00481413, -0.0823299, 0.551195, 0.729, 0, 0, 0
419, 7218.81, -1, 64, 0.000349066, 0.0219562, 1.76549, 0.549956, 0.00484861, -0.0655525, 0.55387, 0.731, 0, 0, 0
420, 7256.86, -1, 64, 0.000837758, 0.0153065, 1.76378, 0.551445, 0.00472596, -0.0628056, 0.55503, 0.729, 0, 0, 0
421, 7294.96, -1, 64, 0.000314159, 0.00577704, 1.76175, 0.54797, 0.00382748, -0.0533395, 0.550573, 0.731, 0, 0, 0
422, 7333.71, -1, 64, -0.000401426, 0.0110654, 1.76053, 0.544521, 0.0036244, -0.0518426, 0.546996, 0.729, 0, 0, 0
423, 7379.01, -1, 64, -0.000610865, 0.0275413, 1.75856, 0.550677, 0.00378835, -0.0477168, 0.552753, 0.728, 0, 0, 0
424, 7419.27, -1, 64, -0.00010472, 0.035692, 1.75676, 0.560963, 0.00357514, -0.0325382, 0.561918, 0.735, 0, 0, 0
425, 7458.32, -1, 64, -0.000541052, 0.0364425, 1.75559, 0.568327, 0.00226229, -0.0346889, 0.569389, 0.733, 0, 0, 0
426, 7497.35, -1, 64, -0.000575959, 0.0343481, 1.75523, 0.576492, 0.000675525, -0.0349593, 0.577552, 0.733, 0, 0, 0
427, 7542.97, -1, 64, -0.000890118, 0.0273668, 1.75254, 0.585991, 0.000769279, -0.0220977, 0.586408, 0.739, 0, 0, 0
428, 7592.02, -1, 64, -0.00164061, 0.0220959, 1.75207, 0.24175, -0.00556048, -0.0158241, 0.242331, 0.743, 0, 0, 0
429, 7640.8, -1, 64, -0.00268781, 0.0169471, 1.75093, -0.0255045, -0.0181164, -0.00849702, 0.0324173, 0.751, 0, 0, 0
430, 7683.93, -1, 64, -0.00441568, 0.0265465, 1.75009, -0.0995877, -0.03355, 1.55263e-05, 0.105087, 0.761, 0, 0, 0
431, 7724.74, -1, 64, -0.00705113, 0.0457276, 1.7494, -0.133051, -0.0543327, 0.0116334, 0.144187, 0.775, 0, 0, 0
432, 7765.24, -1, 64, -0.0105592, 0.0654324, 1.74917, -0.150305, -0.0649308, 0.0142146, 0.164346, 0.788, 0, 0, 0
433, 7808.77, -1, 64, -0.0139103, 0.0824843, 1.74838, -0.0954472, -0.0409499, 0.00864938, 0.10422, 0.801, 0, 0, 0
434, 7832.95, -1, 64, -0.0150273, 0.0872316, 1.74817, -0.0772063, -0.0334249, 0.0212551, 0.0867745, 0.814, 0, 0, 0
435, 7868.07, -1, 64, -0.0158999, 0.0913505, 1.74741, -0.0561112, -0.0226783, 0.0113896, 0.0615833, 0.823, 0, 0, 0
436, 7889.18, -1, 64, -0.0156731, 0.0917869, 1.74755, -0.050339, -0.0207134, -0.0080081, 0.0550199, 0.823, 0, 0, 0
437, 7919.76, -1, 64, -0.0144339, 0.0900415, 1.74707, -0.0493516, -0.0163775, -0.014442, 0.0539664, 0.834, 0, 0, 0
438, 7957.88, -1, 64, -0.0130551, 0.0868127, 1.74688, -0.0381734, -0.0116534, 0.0297954, 0.0498074, 0.87, 0, 0, 0
439, 7983.47, -1, 64, -0.0120951, 0.0840202, 1.74678, -0.0413116, -0.00764499, 0.00948769, 0.043071, 0.877, 0, 0, 0
440, 8030.03, -1, 64, -0.0106116, 0.0796917, 1.74657, -0.0445387, -0.00679532, -0.00867688, 0.045882, 0.886, 0, 0, 0
441, 8068.26, -1, 64, -0.0097913, 0.0765152, 1.74646, -0.0404634, -0.00261847, -0.0448959, 0.0604962, 0.888, 0, 0, 0
442, 8112.49, -1, 64, -0.00846485, 0.0732689, 1.74624, -0.0498587, -0.00894423, -0.0975283, 0.109898, 0.885, 0, 0, 0
443, 8151.17, -1, 64, -0.00813323, 0.0713665, 1.74641, -0.0516418, -0.0113283, -0.127532, 0.138057, 0.882, 0, 0, 0
444, 8196.53, -1, 64, -0.0079587, 0.0699353, 1.74615, -0.0598323, -0.00169484, -0.161998, 0.172702, 0.876, 0, 0, 0
445, 8249.95, -1, 64, -0.00680678, 0.0681202, 1.74749, -0.0380253, 0.00541784, -0.18855, 0.192422, 0.87, 0, 0, 0
446, 8301.16, -1, 64, -0.00607375, 0.0408756, 1.74617, -0.0190824, 0.0203975, -0.217233, 0.219021, 0.859, 0, 0, 0
447, 8345.55, -1, 64, -0.00424115, 0.0309621, 1.74667, -0.040367, 0.00989034, -0.226618, 0.230398, 0.852, 0, 0, 0
448, 8390.36, -1, 64, -0.000750492, 0.0359712, 1.74636, -0.0359939, -0.00531432, -0.23062, 0.233472, 0.845, 0, 0, 0
449, 8428.58, -1, 64, 0.000872665, 0.0400379, 1.74643, -0.0315982, 0.000121192, -0.239764, 0.241837, 0.838, 0, 0, 0
450, 8467.65, -1, 64, 0.0010472, 0.0430224, 1.74615, -0.0174676, 0.00927414, -0.223225, 0.224099, 0.837, 0, 0, 0
451, 8506.36, -1, 64, 0.00148353, 0.0418181, 1.74618, -0.00643211, 0.0223915, -0.220029, 0.221259, 0.833, 0, 0, 0
452, 8545.26, -1, 64, 0.00274017, 0.0404044, 1.74563, -0.00752506, 0.0297588, -0.228975, 0.231023, 0.826, 0, 0, 0
453, 8584.54, -1, 64, 0.00534071, 0.0396015, 1.7457, -0.00865124, 0.0293269, -0.227925, 0.229966, 0.821, 0, 0, 0
454, 8622.95, -1, 64, 0.00741765, 0.0398808, 1.74531, -0.00469492, 0.0261832, -0.191297, 0.193138, 0.835, 0, 0, 0
455, 8660.98, -1, 64, 0.00781908, 0.0406138, 1.74542, -0.00213053, 0.0303292, -0.197519, 0.199845, 0.833, 0, 0, 0
456, 8699.44, -1, 64, 0.00767945, 0.0411898, 1.74524, 0.00281794, 0.0287691, -0.162724, 0.165271, 0.851, 0, 0, 0
457, 8744.41, -1, 64, 0.00783653, 0.0403869, 1.74589, 0.00815799, 0.0307167, -0.19465, 0.197228, 0.842, 0, 0, 0
458, 8791.93, -1, 64, 0.00450295, 0.0367566, 1.74582, 0.00939292, 0.0129812, -0.144949, 0.145832, 0.87, 0, 0, 0
459, 8840.03, -1, 64, -0.00106465, 0.0246091, 1.74653, 0.00409523, 0.0150641, -0.184758, 0.185416, 0.863, 0, 0, 0
460, 8882.17, -1, 64, -0.00350811, 0.00513127, 1.74699, -0.00248877, 0.0177333, -0.216744, 0.217483, 0.854, 0, 0, 0
461, 8928.3, -1, 64, -0.00445059, -0.0161443, 1.74751, -0.020193, -0.0401743, -0.290479, 0.293938, 0.817, 0, 0, 0
462, 8967.03, -1, 64, -0.00541052, -0.0254294, 1.7483, -0.046421, -0.0138065, -0.322619, 0.326234, 0.785, 0, 0, 0
463, 9006.28, -1, 64, -0.00628319, -0.0117112, 1.74875, -0.0409732, 0.0314479, -0.31611, 0.320302, 0.77, 0, 0, 0
464, 9045.2, -1, 64, -0.00462512, 0.00980875, 1.74859, -0.0169051, 0.00724914, -0.306554, 0.307105, 0.749, 0, 0, 0
465, 9083.34, -1, 64, -0.00300197, 0.021101, 1.74831, -0.0136689, -0.0216329, -0.307759, 0.308821, 0.727, 0, 0, 0
466, 9121.42, -1, 64, -0.00254818, 0.0283965, 1.74769, -0.0152471, -0.0448814, -0.296781, 0.300542, 0.704, 0, 0, 0
467, 9160.74, -1, 64, -0.00410152, 0.0312763, 1.74721, -0.0181442, -0.0492366, -0.287978, 0.292719, 0.683, 0, 0, 0
468, 9202.65, -1, 64, -0.00827286, 0.0342783, 1.74643, -0.0179605, -0.0487325, -0.264757, 0.269803, 0.66, 0, 0, 0
469, 9243.11, -1, 64, -0.0105767, 0.0344877, 1.74557, -0.0162582, -0.0470676, -0.246788, 0.251761, 0.637, 0, 0, 0
470, 9286.82, -1, 64, -0.0105418, 0.0328122, 1.7451, -0.0137853, -0.0375688, -0.217188, 0.220844, 0.614, 0, 0, 0
471, 9331.41, -1, 64, -0.00921534, 0.0299324, 1.74419, -0.0141825, -0.0357652, -0.19221, 0.196023, 0.592, 0, 0, 0
472, 9375.29, -1, 64, -0.00888373, 0.0243822, 1.74308, -0.0173382, -0.033451, -0.157803, 0.162239, 0.57, 0, 0, 0
473, 9420.93, -1, 64, -0.00748746, 0.0201236, 1.74264, -0.026269, -0.0300584, -0.118609, 0.125147, 0.551, 0, 0, 0
474, 9464.12, -1, 64, -0.00593412, 0.0183609, 1.74142, -0.0343955, -0.0315314, -0.0868551, 0.0985955, 0.533, 0, 0, 0
475, 9511.21, -1, 64, -0.00181514, 0.0152716, 1.74161, -0.0434508, -0.0346202, -0.0438861, 0.0707992, 0.517, 0, 0, 0
476, 9557.78, -1, 64, 0.00301942, 0.0109258, 1.74116, -0.0559619, -0.0395088, -0.0175036, 0.070704, 0.494, 0, 0, 0
477, 9607.21, -1, 64, 0.00202458, 0.0139626, 1.74222, -0.0933114, -0.0490488, 0.03589, 0.111359, 0.484, 0, 0, 0
478, 9653.15, -1, 64, -0.00151844, 0.0202633, 1.74217, -0.100891, -0.0544828, 0.0728787, 0.135863, 0.477, 0, 0, 0
479, 9693.75, -1, 64, -0.00359538, 0.0250455, 1.74276, -0.0983817, -0.0570378, 0.117039, 0.163188, 0.473, 0, 0, 0
480, 9732.74, -1, 64, -0.000279253, 0.02337, 1.74278, -0.0989442, -0.0564835, 0.155551, 0.192812, 0.47, 0, 0, 0
481, 9776.98, -1, 64, 0.00289725, 0.019984, 1.74252, -0.0840419, -0.0570833, 0.193336, 0.218404, 0.47, 0, 0, 0
482, 9818.47, -1, 64, 0.00202458, 0.0228289, 1.74348, -0.0809009, -0.055666, 0.212941, 0.234494, 0.47, 0, 0, 0
483, 9856.74, -1, 64, 0.00251327, 0.0244346, 1.74383, -0.0658122, -0.0518498, 0.24529, 0.259204, 0.474, 0, 0, 0
484, 9894.8, -1, 64, 0.00568977, 0.0225322, 1.7447, -0.0587762, -0.0528432, 0.262605, 0.274242, 0.477, 0, 0, 0
485, 9933.69, -1, 64, 0.00911062, 0.0193732, 1.74561, -0.0491307, -0.0532049, 0.290134, 0.299036, 0.486, 0, 0, 0
486, 9971.65, -1, 64, 0.00753982, 0.0190241, 1.74666, -0.0420706, -0.0524969, 0.306688, 0.31398, 0.493, 0, 0, 0
487, 10010.3, -1, 64, 0.00162316, 0.0176976, 1.74716, -0.0374978, -0.0490406, 0.323075, 0.32892, 0.502, 0, 0, 0
488, 10048.8, -1, 64, -0.00441568, 0.0161792, 1.74776, -0.0337109, -0.0405012, 0.332624, 0.336773, 0.51, 0, 0, 0
489, 10092.1, -1, 64, -0.0101927, 0.015865, 1.74837, -0.0312317, -0.033889, 0.344154, 0.347226, 0.522, 0, 0, 0
490, 10136.4, -1, 64, -0.0159872, 0.018134, 1.74858, -0.028997, -0.026964, 0.355553, 0.357751, 0.538, 0, 0, 0
491, 10183.7, -1, 64, -0.0239285, 0.0220435, 1.74791, -0.0244206, -0.0184572, 0.360435, 0.361732, 0.556, 0, 0, 0
492, 10229.7, -1, 64, -0.0273842, 0.024644, 1.74786, -0.0186973, -0.0120757, 0.362088, 0.362771, 0.57, 0, 0, 0
493, 10274, -1, 64, -0.0274366, 0.0260229, 1.74735, -0.0150873, -0.00795384, 0.354167, 0.354577, 0.583, 0, 0, 0
494, 10311.9, -1, 64, -0.0280474, 0.0245219, 1.74723, -0.0151487, -0.00897008, 0.351483, 0.351924, 0.596, 0, 0, 0
495, 10350.4, -1, 64, -0.0294961, 0.0213454, 1.74718, -0.012985, -0.00152553, 0.352504, 0.352746, 0.613, 0, 0, 0
496, 10389.8, -1, 64, -0.0290772, 0.0199142, 1.74673, -0.0132361, 0.00128285, 0.345026, 0.345282, 0.623, 0, 0, 0
497, 10427.5, -1, 64, -0.0271748, 0.0188146, 1.74657, -0.0130231, 0.00545097, 0.334502, 0.3348, 0.639, 0, 0, 0
498, 10467.7, -1, 64, -0.0251327, 0.0187274, 1.74652, -0.0121083, 0.0085065, 0.318449, 0.318792, 0.648, 0, 0, 0
499, 10507.7, -1, 64, -0.0226369, 0.0185179, 1.74636, -0.0106207, 0.00970419, 0.298736, 0.299083, 0.661, 0, 0, 0
500, 10547.7, -1, 64, -0.0218864, 0.0171042, 1.74653, -0.0108203, 0.0116383, 0.279198, 0.279649, 0.672, 0, 0, 0
501, 10587.8, -1, 64, -0.0214501, 0.0156731, 1.74634, -0.0109057, 0.0122814, 0.261883, 0.262398, 0.679, 0, 0, 0
502, 10627.8, -1, 64, -0.020176, 0.0121126, 1.74681, -0.0103617, 0.0144428, 0.24639, 0.24703, 0.688, 0, 0, 0
503, 10672.2, -1, 64, -0.015132, 0.00527089, 1.74711, -0.0131947, 0.0233635, 0.235225, 0.236751, 0.701, 0, 0, 0
504, 10717.2, -1, 64, -0.00792379, -0.000907571, 1.74744, -0.0221043, 0.0236605, 0.214243, 0.216676, 0.71, 0, 0, 0
505, 10763.1, -1, 64, -0.00190241, -0.00312414, 1.74786, -0.0264334, 0.0244928, 0.197061, 0.200329, 0.717, 0, 0, 0
506, 10806.6, -1, 64, 0.0044855, -0.00171042, 1.74849, -0.0302036, 0.0274504, 0.184081, 0.188551, 0.726, 0, 0, 0
507, 10844.5, -1, 64, 0.00614356, 0.00258309, 1.74889, -0.0372079, 0.0396087, 0.180525, 0.188527, 0.736, 0, 0, 0
508, 10882.1, -1, 64, 0.00579449, 0.00481711, 1.74957, -0.0362988, 0.0395819, 0.163593, 0.172183, 0.74, 0, 0, 0
509, 10920.5, -1, 64, 0.00509636, 0.00752237, 1.75004, -0.0396748, 0.0205279, 0.155568, 0.161854, 0.748, 0, 0, 0
510, 10958.4, -1, 64, 0.0037001, 0.00867429, 1.7502, -0.0408994, 0.0173104, 0.145691, 0.15231, 0.752, 0, 0, 0
511, 10996.3, -1, 64, 0.000680678, 0.0109607, 1.75048, -0.0400223, 0.0268669, 0.116676, 0.126241, 0.756, 0, 0, 0
512, 11034.2, -1, 64, -0.000907571, 0.0128456, 1.75025, -0.0439227, 0.0328867, 0.10885, 0.121898, 0.76, 0, 0, 0
513, 11072, -1, 64, -0.000750492, 0.0145735, 1.75001, -0.0454909, 0.042609, 0.102801, 0.120221, 0.765, 0, 0, 0
514, 11109.7, -1, 64, -0.000767945, 0.0169297, 1.75025, -0.0476637, 0.0379363, 0.0954825, 0.11326, 0.768, 0, 0, 0
515, 11147.7, -1, 64, -0.000994838, 0.0200189, 1.74947, -0.0470641, 0.0351456, 0.0874116, 0.105314, 0.773, 0, 0, 0
516, 11196.8, -1, 64, -0.00129154, 0.0215025, 1.74983, -0.0433956, 0.0236599, 0.086682, 0.0997834, 0.779, 0, 0, 0
517, 11244.2, -1, 64, -0.000261799, 0.0235445, 1.74957, -0.040468, 0.0275751, 0.0768142, 0.0910959, 0.782, 0, 0, 0
518, 11289.4, -1, 64, 0.00240855, 0.0258134, 1.75004, -0.0314574, 0.0397898, 0.0897129, 0.103059, 0.791, 0, 0, 0
519, 11296, -1, 64, 0.00258309, 0.025988, 1.74997, -0.0298815, 0.0419605, 0.0876993, 0.101709, 0.791, 0, 0, 0
520, 11336.7, -1, 64, 0.00390954, 0.0248884, 1.7505, -0.025014, 0.0339218, 0.0661778, 0.0784595, 0.795, 0, 0, 0
521, 11378, -1, 64, 0.00563741, 0.0238063, 1.75025, -0.0244634, 0.0403534, 0.0557038, 0.0730052, 0.797, 0, 0, 0
522, 11415.7, -1, 64, 0.00862193, 0.0215897, 1.75151, -0.0153634, 0.0348101, 0.0425106, 0.057052, 0.8, 0, 0, 0
523, 11453.2, -1, 64, 0.0109083, 0.0186576, 1.75177, -0.010381, 0.0273849, 0.0269345, 0.039789, 0.799, 0, 0, 0
524, 11491.2, -1, 64, 0.0119206, 0.0139801, 1.75306, -0.0138408, 0.011112, 0.0128135, 0.0218913, 0.799, 0, 0, 0
525, 11530, -1, 64, 0.0105069, 0.0114494, 1.75365, -0.0151232, 0.004777, 0.0179511, 0.0239536, 0.802, 0, 0, 0
526, 11573.2, -1, 64, 0.00750492, 0.0100182, 1.7551, -0.0150382, 0.00107724, -0.000131967, 0.0150773, 0.801, 0, 0, 0
527, 11623.1, -1, 64, 0.00394444, 0.0130551, 1.75592, -0.0155269, 0.000417959, -0.00675743, 0.0169388, 0.801, 0, 0, 0
528, 11663.9, -1, 64, 0.000802851, 0.0157603, 1.7573, -0.0129177, 0.000487469, -0.0164755, 0.0209415, 0.799, 0, 0, 0
529, 11710.8, -1, 64, 0.000314159, 0.0133169, 1.75795, -0.0124099, -0.00841654, -0.0154415, 0.0215241, 0.799, 0, 0, 0
530, 11758.8, -1, 64, -0.000418879, 0.00949459, 1.75858, -0.0144764, -0.00963979, -0.0180637, 0.0250757, 0.799, 0, 0, 0
531, 11795.9, -1, 64, -0.00247837, 0.00912807, 1.75891, -0.0189956, -0.00988747, -0.0116976, 0.0244014, 0.8, 0, 0, 0
532, 11824.1, -1, 64, -0.00349066, 0.00994838, 1.75891, -0.0206558, -0.01278, -0.0143379, 0.0282057, 0.799, 0, 0, 0
533, 11855.1, -1, 64, -0.0047473, 0.0116064, 1.75896, -0.0207911, -0.00454983, -0.0146153, 0.0258182, 0.8, 0, 0, 0
534, 11889, -1, 64, -0.00490438, 0.0137183, 1.75889, -0.0233031, 0.0069201, -0.0180185, 0.0302587, 0.799, 0, 0, 0
535, 11913.8, -1, 64, -0.00516617, 0.0160745, 1.7584, -0.0200188, 0.00624651, -0.010739, 0.0235606, 0.801, 0, 0, 0
536, 11942.9, -1, 64, -0.00525344, 0.0168599, 1.75824, -0.0206439, 0.00727682, -0.0130992, 0.025509, 0.801, 0, 0, 0
537, 11976.6, -1, 64, -0.00541052, 0.0175057, 1.75795, -0.0213906, 0.00468503, -0.0169635, 0.0276996, 0.8, 0, 0, 0
538, 12005.3, -1, 64, -0.00544543, 0.0163886, 1.75737, -0.0164943, 0.00668752, -0.0211073, 0.0276098, 0.8, 0, 0, 0
539, 12035.1, -1, 64, -0.00537561, 0.0143117, 1.75715, -0.0121893, 0.00475633, -0.000110382, 0.0130849, 0.804, 0, 0, 0
540, 12070.3, -1, 64, -0.00551524, 0.0138754, 1.75685, -0.0126035, 7.20801e-05, -0.00728842, 0.0145593, 0.804, 0, 0, 0
541, 12097.1, -1, 64, -0.00565487, 0.0147655, 1.75652, -0.0127887, -0.000447479, -0.00423278, 0.0134784, 0.805, 0, 0, 0
542, 12148.5, -1, 64, -0.00539307, 0.0167552, 1.75533, -0.0115372, 0.00895336, -0.0168, 0.02226, 0.805, 0, 0, 0
543, 12191.8, -1, 64, -0.0044855, 0.0174533, 1.75538, -0.0071302, 0.00476201, -0.0212987, 0.0229598, 0.805, 0, 0, 0
544, 12240.8, -1, 64, -0.00490438, 0.00675442, 1.75488, 0.00896608, 0.00677682, -0.0318545, 0.033779, 0.803, 0, 0, 0
545, 12279.4, -1, 64, -0.00349066, -0.00481711, 1.7543, 0.00260557, 0.0175235, -0.0266145, 0.0319718, 0.805, 0, 0, 0
546, 12323.2, -1, 64, 0.000890118, -0.0173486, 1.75413, -0.00419125, 0.0304471, -0.00183143, 0.0307887, 0.811, 0, 0, 0
547, 12367.1, -1, 64, 0.006353, -0.0225671, 1.75381, -0.0208739, 0.0295608, -0.0295586, 0.0467255, 0.807, 0, 0, 0
548, 12408.8, -1, 64, 0.0114319, -0.0259705, 1.75444, -0.0356786, 0.0173075, -0.0480462, 0.0622973, 0.803, 0, 0, 0
549, 12447.4, -1, 64, 0.0132121, -0.0275413, 1.75289, -0.040518, 0.0137027, -0.0577958, 0.0719015, 0.8, 0, 0, 0
550, 12492.2, -1, 64, 0.0131598, -0.0293564, 1.75322, -0.0473843, 0.000107212, -0.0627184, 0.0786058, 0.798, 0, 0, 0
551, 12538.8, -1, 64, 0.0101927, -0.0291819, 1.75269, -0.0619084, -0.00963021, -0.0561747, 0.0841486, 0.796, 0, 0, 0
552, 12585.3, -1, 64, 0.00233874, -0.0255342, 1.75146, -0.0820508, -0.0125324, -0.0452848, 0.0945521, 0.796, 0, 0, 0
553, 12631.2, -1, 64, -0.00453786, -0.019251, 1.7509, -0.0931964, 0.00243052, -0.0331094, 0.0989329, 0.797, 0, 0, 0
554, 12679.2, -1, 64, -0.00427606, -0.0125315, 1.75034, -0.103425, -0.00620568, -0.024977, 0.106579, 0.799, 0, 0, 0
555, 12722.8, -1, 64, 0.000890118, -0.0020944, 1.74992, -0.108686, -0.00330115, -0.0220628, 0.110952, 0.801, 0, 0, 0
556, 12766.8, -1, 64, 0.00429351, -0.0023911, 1.75048, -0.105576, -0.00612258, -0.00310912, 0.105799, 0.806, 0, 0, 0
557, 12811.6, -1, 64, 0.00588176, -0.0197746, 1.7502, -0.11851, -0.0104847, -0.00624536, 0.119136, 0.808, 0, 0, 0
558, 12849.1, -1, 64, 0.00563741, -0.0348891, 1.75039, -0.117963, -0.00991515, -0.00470725, 0.118472, 0.81, 0, 0, 0
559, 12897, -1, 64, 0.00511381, -0.0524646, 1.75065, -0.138644, -0.00832081, -0.0083947, 0.139146, 0.812, 0, 0, 0
560, 12944.7, -1, 64, 0.00356047, -0.0698306, 1.75088, -0.186192, -0.0141677, -0.0133897, 0.187209, 0.815, 0, 0, 0
561, 12986.4, -1, 64, 0.000750492, -0.0795521, 1.75149, -0.211789, -0.0202747, -0.0316588, 0.2151, 0.814, 0, 0, 0
562, 13024.7, -1, 64, -0.00193732, -0.0846485, 1.7513, -0.235158, -0.0219856, -0.017007, 0.236795, 0.819, 0, 0, 0
563, 13068.4, -1, 64, -0.00715585, -0.0906349, 1.75156, -0.272631, -0.0258604, -0.0262598, 0.275111, 0.82, 0, 0, 0
564, 13107.8, -1, 64, -0.0119904, -0.0758346, 1.75135, -0.323304, -0.0277834, -0.0429089, 0.32732, 0.819, 0, 0, 0
565, 13152.9, -1, 64, -0.0156731, -0.0472112, 1.75137, -0.329323, -0.0236292, -0.058561, 0.335323, 0.816, 0, 0, 0
566, 13198, -1, 64, -0.0186401, -0.0197397, 1.75057, -0.288148, -0.00480739, -0.07024, 0.296625, 0.814, 0, 0, 0
567, 13239.8, -1, 64, -0.020909, 0.000750492, 1.75069, -0.299544, 0.00188046, -0.0667088, 0.306888, 0.815, 0, 0, 0
568, 13284.1, -1, 64, -0.0223053, 0.020176, 1.75088, -0.311988, 0.00272858, -0.0738818, 0.320628, 0.813, 0, 0, 0
569, 13331, -1, 64, -0.0234747, 0.0370533, 1.75051, -0.311921, 0.0138848, -0.0868049, 0.324072, 0.809, 0, 0, 0
570, 13352.6, -1, 64, -0.0239459, 0.0444361, 1.75016, -0.301713, 0.0272513, -0.0895828, 0.315909, 0.807, 0, 0, 0
571, 13379.3, -1, 64, -0.0238936, 0.0530231, 1.75034, -0.315506, 0.0280317, -0.0898784, 0.329253, 0.805, 0, 0, 0
572, 13415.7, -1, 64, -0.0233176, 0.0663574, 1.75006, -0.267078, 0.0441651, -0.0912129, 0.285659, 0.802, 0, 0, 0
573, 13441.1, -1, 64, -0.0228987, 0.0703368, 1.75006, -0.263446, 0.0504059, -0.0925255, 0.283735, 0.8, 0, 0, 0
574, 13470.3, -1, 64, -0.0208741, 0.0786445, 1.75069, -0.228826, 0.0708349, -0.093641, 0.257192, 0.797, 0, 0, 0
575, 13504.4, -1, 64, -0.018483, 0.0833395, 1.75016, -0.222583, 0.077346, -0.0947783, 0.253985, 0.794, 0, 0, 0
576, 13533.7, -1, 64, -0.0138928, 0.083706, 1.75025, -0.219324, 0.0855023, -0.0825225, 0.249447, 0.794, 0, 0, 0
577, 13565.6, -1, 64, -0.00328122, 0.0761138, 1.75034, -0.21504, 0.0938434, -0.0850784, 0.249574, 0.791, 0, 0, 0
578, 13592.9, -1, 64, 0.00232129, 0.068574, 1.75027, -0.213717, 0.0971432, -0.0784577, 0.247522, 0.791, 0, 0, 0
579, 13623.5, -1, 64, 0.00417134, 0.0570897, 1.75032, -0.190533, 0.0891568, -0.074835, 0.223275, 0.789, 0, 0, 0
580, 13661.2, -1, 64, 0.00242601, 0.0481711, 1.75013, -0.173337, 0.0934771, -0.0774084, 0.211602, 0.787, 0, 0, 0
581, 13690, -1, 64, 0.00308923, 0.0461116, 1.75036, -0.149183, 0.0921842, -0.0768014, 0.191447, 0.785, 0, 0, 0
582, 13716.1, -1, 64, 0.00429351, 0.0463909, 1.75048, -0.151685, 0.0907063, -0.0775999, 0.193022, 0.783, 0, 0, 0
583, 13750.8, -1, 64, 0.00574213, 0.0467923, 1.75039, -0.132953, 0.0856774, -0.0784095, 0.176536, 0.781, 0, 0, 0
584, 13775.7, -1, 64, 0.00577704, 0.0464083, 1.74404, -0.128295, 0.0824814, -0.0786928, 0.171625, 0.778, 0, 0, 0
585, 13807.7, -1, 64, 0.00240855, 0.0428304, 1.72442, -0.114399, 0.0845075, -0.0778655, 0.162147, 0.776, 0, 0, 0
586, 13838.7, -1, 64, -0.00445059, 0.0352557, 1.71219, -0.107411, 0.0804073, -0.0656979, 0.149394, 0.777, 0, 0, 0
587, 13867.2, -1, 64, -0.00842994, 0.0259705, 1.70915, -0.102697, 0.0865262, -0.0675157, 0.150306, 0.775, 0, 0, 0
588, 13901.4, -1, 64, -0.00450295, 0.0247488, 1.69625, -0.0915602, 0.105167, -0.0381408, 0.144562, 0.78, 0, 0, 0
589, 13926.9, -1, 64, 0.00146608, 0.0261799, 1.69096, -0.104859, 0.0924911, -0.0437262, 0.146499, 0.779, 0, 0, 0
590, 13966.1, -1, 64, 0.00729548, 0.0267035, 1.68243, -0.0852984, 0.0865553, -0.0259294, 0.124258, 0.784, 0, 0, 0
591, 13990.5, -1, 64, 0.0101753, 0.0264068, 1.67656, -0.0807521, 0.082562, -0.0140612, 0.11634, 0.788, 0, 0, 0
592, 14026.4, -1, 64, 0.0158825, 0.025412, 1.66988, -0.0489958, 0.0835249, -0.00965094, 0.0973146, 0.791, 0, 0, 0
593, 14052.2, -1, 64, 0.0206123, 0.0251153, 1.66393, -0.0239322, 0.0735194, -0.00450845, 0.0774479, 0.793, 0, 0, 0
594, 14087, -1, 64, 0.0270701, 0.0227591, 1.65972, -0.0267533, 0.0702652, 0.00528513, 0.0753715, 0.797, 0, 0, 0
595, 14114.9, -1, 64, 0.031189, 0.0193557, 1.65499, -0.0305472, 0.064955, -0.0100585, 0.0724808, 0.797, 0, 0, 0
596, 14143.8, -1, 64, 0.0342085, 0.0164061, 1.65183, -0.0249107, 0.058937, -0.0214501, 0.067485, 0.797, 0, 0, 0
597, 14178.1, -1, 64, 0.0378213, 0.0130551, 1.6493, -0.00369111, 0.0452684, -0.00736384, 0.0460117, 0.801, 0, 0, 0
598, 14206.1, -1, 64, 0.0403346, 0.00984366, 1.64595, -0.00744695, 0.0378269, -0.0222604, 0.0445181, 0.801, 0, 0, 0
599, 14241.6, -1, 64, 0.0418879, 0.00574213, 1.64337, -0.000599985, 0.0323497, -0.0339614, 0.0469067, 0.801, 0, 0, 0
600, 14266, -1, 64, 0.0425337, 0.00321141, 1.64092, -0.00281226, 0.0243735, -0.0338502, 0.0418068, 0.802, 0, 0, 0
601, 14303.4, -1, 64, 0.0388859, -0.00258309, 1.60951, 0.00539358, 0.0222604, -0.0469238, 0.0522155, 0.801, 0, 0, 0
602, 14328.1, -1, 64, 0.0365996, -0.00429351, 1.60041, 0.00188568, 0.0215524, -0.0526172, 0.0568914, 0.801, 0, 0, 0
603, 14360.4, -1, 64, 0.0330216, -0.00781908, 1.58074, -0.00320271, 0.0152603, -0.0612802, 0.0632329, 0.799, 0, 0, 0
604, 14388.7, -1, 64, 0.0316603, -0.00809833, 1.55326, -0.00330561, 0.00526412, -0.0563624, 0.0567041, 0.8, 0, 0, 0
605, 14419.3, -1, 64, 0.031189, -0.00870919, 1.53743, -0.00205547, -0.00526159, -0.0536676, 0.053964, 0.801, 0, 0, 0
606, 14449.6, -1, 64, 0.0300197, -0.00925025, 1.51894, -0.0065121, -0.00834957, -0.0622041, 0.0630989, 0.8, 0, 0, 0
607, 14490.2, -1, 64, 0.0260927, -0.00703368, 1.48521, 0.00170753, -0.0131173, -0.0677164, 0.0689963, 0.799, 0, 0, 0
608, 14531.2, -1, 64, 0.0221308, -0.00324631, 1.45049, 0.0572191, -0.00693679, -0.0686624, 0.0896475, 0.797, 0, 0, 0
609, 14577.6, -1, 64, 0.0178896, 0.000453786, 1.41677, 0.0455995, -0.0263389, -0.0718297, 0.0890649, 0.796, 0, 0, 0
610, 14623.1, -1, 64, 0.0144862, 0.00336849, 1.38122, 0.0378224, -0.041102, -0.0762462, 0.0945166, 0.794, 0, 0, 0
611, 14666.8, -1, 64, 0.0124093, 0.00781908, 1.35027, 0.0381075, -0.0539761, -0.0730711, 0.0985139, 0.793, 0, 0, 0
612, 14713.2, -1, 64, 0.00954695, 0.012514, 1.31853, 0.0411071, -0.0614359, -0.0748859, 0.105224, 0.791, 0, 0, 0
613, 14760.6, -1, 64, 0.00544543, 0.0168948, 1.27505, 0.114657, -0.0140621, -0.0781942, 0.139493, 0.789, 0, 0, 0
614, 14807.4, -1, 64, 0.0018326, 0.0194255, 1.23582, 0.124409, -0.0242994, -0.0882338, 0.154445, 0.785, 0, 0, 0
615, 14847.4, -1, 64, -0.00169297, 0.0202284, 1.20442, 0.111559, -0.0400308, -0.0910409, 0.149453, 0.781, 0, 0, 0
616, 14853.7, -1, 64, -0.00169297, 0.0202284, 1.20442, 0.111559, -0.0400308, -0.0910409, 0.149453, 0.781, 0, 0, 0
617, 14898.1, -1, 64, -0.00596903, 0.0200538, 1.169, 0.133864, -0.0355615, -0.0880452, 0.164122, 0.778, 0, 0, 0
618, 14947.6, -1, 64, -0.00870919, 0.0169995, 1.12593, 0.131626, -0.0523187, -0.0853779, 0.165384, 0.775, 0, 0, 0
619, 14995.5, -1, 64, -0.00994838, 0.0122871, 1.09067, 0.148846, -0.0414956, -0.0869257, 0.177294, 0.771, 0, 0, 0
620, 15040.6, -1, 64, -0.0113097, 0.00621337, 1.05952, 0.141738, -0.0413242, -0.0885637, 0.172166, 0.768, 0, 0, 0
621, 15084.5, -1, 64, -0.0129678, 0.000663225, 1.02437, 0.142781, -0.0433775, -0.0856023, 0.172034, 0.764, 0, 0, 0
622, 15131.3, -1, 64, -0.0172788, -0.00132645, 0.984453, 0.153085, -0.0327372, -0.0817631, 0.176612, 0.761, 0, 0, 0
623, 15180.2, -1, 64, -0.020909, -0.000471239, 0.951676, 0.160599, -0.00865315, -0.0841012, 0.181494, 0.757, 0, 0, 0
624, 15222.9, -1, 64, -0.0230558, 0.000139626, 0.9108, 0.173385, 0.00520816, -0.0802354, 0.191121, 0.753, 0, 0, 0
625, 15266.2, -1, 64, -0.0249408, -0.00010472, 0.877586, 0.176091, 0.0122648, -0.0783166, 0.193111, 0.75, 0, 0, 0
626, 15311.1, -1, 64, -0.0264068, -0.00274017, 0.836344, 0.185328, 0.0236153, -0.0742121, 0.201027, 0.746, 0, 0, 0
627, 15348.1, -1, 64, -0.0249757, -0.00551524, 0.811665, 0.189263, 0.0514051, -0.0716254, 0.20879, 0.743, 0, 0, 0
628, 15378.3, -1, 64, -0.0198095, -0.00911062, 0.782483, 0.189464, 0.0668317, -0.0728854, 0.213718, 0.74, 0, 0, 0
629, 15412.6, -1, 64, -0.0133867, -0.0119381, 0.759724, 0.190029, 0.0701384, -0.068591, 0.213857, 0.738, 0, 0, 0
630, 15439.1, -1, 64, -0.00883137, -0.0160396, 0.74564, 0.184003, 0.0700844, -0.0638403, 0.206989, 0.736, 0, 0, 0
631, 15474, -1, 64, -0.00485202, -0.0205076, 0.728972, 0.186152, 0.0641791, -0.0574273, 0.205109, 0.734, 0, 0, 0
632, 15501.1, -1, 64, -0.0021293, -0.023719, 0.722741, 0.182788, 0.0613467, -0.055343, 0.200594, 0.733, 0, 0, 0
633, 15537.6, -1, 64, 0.00961676, -0.0381704, 0.704607, 0.180154, 0.066225, -0.0441078, 0.196944, 0.732, 0, 0, 0
634, 15565.4, -1, 64, 0.0131772, -0.044471, 0.695776, 0.173916, 0.0590477, -0.0419031, 0.188386, 0.731, 0, 0, 0
635, 15595.8, -1, 64, 0.0151495, -0.0492357, 0.687677, 0.165819, 0.0519338, -0.042185, 0.178809, 0.729, 0, 0, 0
636, 15622.4, -1, 64, 0.0169646, -0.0516617, 0.679317, 0.148364, 0.0464749, -0.0393597, 0.160377, 0.728, 0, 0, 0
637, 15668.7, -1, 64, 0.0187274, -0.0508763, 0.669822, 0.126556, 0.0358263, -0.0258937, 0.134054, 0.728, 0, 0, 0
638, 15712.4, -1, 64, 0.0178373, -0.0480838, 0.661148, 0.103618, 0.0247261, -0.0145714, 0.107519, 0.729, 0, 0, 0
639, 15757.1, -1, 64, 0.0191986, -0.0440172, 0.652963, 0.0766175, 0.0137262, -0.0138748, 0.0790643, 0.728, 0, 0, 0
640, 15806.7, -1, 64, 0.0245393, -0.0412072, 0.618824, 0.0619343, 0.00974142, -0.0147818, 0.0644148, 0.727, 0, 0, 0
641, 15853.3, -1, 64, 0.0251851, -0.0302815, 0.603133, 0.0486266, -0.00450252, -0.00606729, 0.0492101, 0.728, 0, 0, 0
642, 15904, -1, 64, 0.0213454, -0.0221831, 0.577756, 0.0417219, -0.0282115, 0.0122315, 0.0518287, 0.733, 0, 0, 0
643, 15948.5, -1, 64, 0.0152891, -0.0160919, 0.564125, 0.039206, -0.0355671, 0.0229258, 0.0576864, 0.736, 0, 0, 0
644, 15995.6, -1, 64, 0.007662, -0.0092677, 0.5436, 0.0375001, -0.0334832, 0.0322844, 0.0597467, 0.742, 0, 0, 0
645, 16044.4, -1, 64, 0.00197222, -0.00621337, 0.529673, 0.0382367, -0.0494984, 0.0325323, 0.0705017, 0.746, 0, 0, 0
646, 16082.6, -1, 64, -0.00431096, -0.0042237, 0.519026, 0.0384857, -0.0562561, 0.0382788, 0.0781739, 0.752, 0, 0, 0
647, 16126.2, -1, 64, -0.0111876, -0.00228638, 0.509811, 0.0439356, -0.0564958, 0.0246303, 0.0756886, 0.753, 0, 0, 0
648, 16165.9, -1, 64, -0.0161094, -0.00242601, 0.503196, 0.0462624, -0.0545748, 0.0142791, 0.0729555, 0.754, 0, 0, 0
649, 16208.3, -1, 64, -0.0197397, -0.00413643, 0.496215, 0.0478046, -0.0494708, 0.0172255, 0.0709179, 0.758, 0, 0, 0
650, 16252.4, -1, 64, -0.0206298, -0.00525344, 0.489146, 0.0448888, -0.043136, 0.00293199, 0.0623242, 0.758, 0, 0, 0
651, 16296, -1, 64, -0.0197397, -0.00771436, 0.477836, 0.0468515, -0.0464452, 0.00641253, 0.0662823, 0.762, 0, 0, 0
652, 16328.2, -1, 64, -0.0177325, -0.00829031, 0.451674, 0.0451185, -0.0178454, -0.00288561, 0.0486052, 0.762, 0, 0, 0
653, 16379.1, -1, 64, -0.01213, -0.000994838, 0.416017, 0.0412802, 0.000516861, -0.0127915, 0.0432197, 0.763, 0, 0, 0
654, 16422.2, -1, 64, -0.0100356, 0.00460767, 0.381023, 0.0404578, 0.00228011, -0.0147236, 0.043114, 0.764, 0, 0, 0
655, 16470.7, -1, 64, -0.00813323, 0.00856957, 0.349869, 0.0466542, 0.00141832, -0.016607, 0.0495421, 0.765, 0, 0, 0
656, 16516.9, -1, 64, -0.00439823, 0.00925025, 0.315224, 0.0524183, 0.0125826, -0.0267237, 0.0601677, 0.764, 0, 0, 0
657, 16564.7, -1, 64, 0.00202458, 0.00675442, 0.27091, 0.0576124, 0.0196086, -0.0295642, 0.0676589, 0.764, 0, 0, 0
658, 16608.6, -1, 64, 0.00509636, 0.00546288, 0.251676, 0.0611222, 0.0119122, -0.0344024, 0.0711432, 0.763, 0, 0, 0
659, 16664.4, -1, 64, 0.00764454, -0.00136136, 0.228324, 0.0709822, -1.27468e-05, -0.0331159, 0.0783271, 0.762, 0, 0, 0
660, 16707.7, -1, 64, 0.00336849, -0.00633555, 0.213524, 0.0717598, -0.0110393, -0.041528, 0.0836415, 0.76, 0, 0, 0
661, 16758.1, -1, 64, -5.23599e-05, -0.0093026, 0.200783, 0.0745615, -0.0144995, -0.0409216, 0.08628, 0.759, 0, 0, 0
662, 16805.6, -1, 64, -0.00270526, -0.0126013, 0.18682, 0.0718107, -0.0277836, -0.0383849, 0.0860355, 0.758, 0, 0, 0
663, 16828.1, -1, 64, -0.00350811, -0.0136659, 0.183347, 0.0713449, -0.0333116, -0.0400518, 0.0883397, 0.757, 0, 0, 0
664, 16858.1, -1, 64, -0.00466003, -0.0150273, 0.178425, 0.0713662, -0.0343308, -0.0421953, 0.0897339, 0.756, 0, 0, 0
665, 16889.6, -1, 64, -0.00631809, -0.0159174, 0.173189, 0.0719049, -0.0296208, -0.0425857, 0.0886637, 0.755, 0, 0, 0
666, 16920.9, -1, 64, -0.00745256, -0.0157603, 0.168232, 0.0654948, -0.027364, -0.0441513, 0.0835924, 0.754, 0, 0, 0
667, 16952.8, -1, 64, -0.00797615, -0.0152193, 0.164131, 0.0601283, -0.0340451, -0.0395476, 0.0796147, 0.754, 0, 0, 0
668, 16983.4, -1, 64, -0.00811578, -0.0140674, 0.160274, 0.0555149, -0.0340932, -0.0404757, 0.0766976, 0.752, 0, 0, 0
669, 17016.9, -1, 64, -0.00869174, -0.0131772, 0.156626, 0.0540776, -0.0350235, -0.0335414, 0.0726365, 0.752, 0, 0, 0
670, 17044.2, -1, 64, -0.00987856, -0.0126711, 0.154182, 0.0507194, -0.0346209, -0.0355835, 0.0709736, 0.751, 0, 0, 0
671, 17075.4, -1, 64, -0.0106989, -0.0128107, 0.152297, 0.0511235, -0.0361896, -0.0335455, 0.0710535, 0.751, 0, 0, 0
672, 17111.4, -1, 64, -0.0123918, -0.0137532, 0.149453, 0.0479128, -0.0348218, -0.0369582, 0.0698147, 0.75, 0, 0, 0
673, 17136.6, -1, 64, -0.0137532, -0.0143292, 0.147986, 0.0494414, -0.0346491, -0.0372061, 0.0709176, 0.749, 0, 0, 0
674, 17166.8, -1, 64, -0.0144513, -0.0149924, 0.146608, 0.050717, -0.0347131, -0.0377918, 0.0721487, 0.748, 0, 0, 0
675, 17199.3, -1, 64, -0.0161443, -0.0162316, 0.144758, 0.0496257, -0.0328811, -0.0319783, 0.0675758, 0.748, 0, 0, 0
676, 17227.6, -1, 64, -0.0162665, -0.0161094, 0.144129, 0.0466856, -0.0290038, -0.0312477, 0.0632233, 0.747, 0, 0, 0
677, 17257.7, -1, 64, -0.0152891, -0.0147829, 0.142768, 0.0401079, -0.0252284, -0.032586, 0.0575062, 0.746, 0, 0, 0
678, 17289.1, -1, 64, -0.0107861, -0.00781908, 0.141389, 0.0340721, -0.0205505, -0.0319849, 0.0510516, 0.745, 0, 0, 0
679, 17319.1, -1, 64, -0.0074002, -0.00185005, 0.14022, 0.0371571, -0.0166299, -0.0324781, 0.0520772, 0.744, 0, 0, 0
680, 17350.1, -1, 64, -0.0074351, -0.000977384, 0.139522, 0.0373854, -0.00787434, -0.0173273, 0.0419512, 0.747, 0, 0, 0
681, 17380.5, -1, 64, -0.00780162, -0.00221657, 0.138492, 0.0370387, -0.0154206, -0.0204554, 0.0450343, 0.746, 0, 0, 0
682, 17413.4, -1, 64, -0.00733038, -0.00413643, 0.137759, 0.0389823, -0.0189679, -0.0226747, 0.0489238, 0.745, 0, 0, 0
683, 17448.4, -1, 64, -0.00645772, -0.00558505, 0.136799, 0.0396764, -0.0119906, -0.0243092, 0.0480513, 0.744, 0, 0, 0
684, 17477.4, -1, 64, -0.00614356, -0.00738274, 0.136223, 0.0391132, -0.0155908, -0.0257045, 0.049332, 0.744, 0, 0, 0
685, 17503.3, -1, 64, -0.00720821, -0.00898845, 0.13556, 0.0383291, -0.0199316, -0.0179931, 0.0467989, 0.744, 0, 0, 0
686, 17538.2, -1, 64, -0.00834267, -0.0105767, 0.134792, 0.0374555, -0.021452, -0.0196459, 0.0474243, 0.744, 0, 0, 0
687, 17569.7, -1, 64, -0.0111352, -0.0118682, 0.133902, 0.0328525, -0.019248, -0.0178689, 0.0420603, 0.744, 0, 0, 0
688, 17598.1, -1, 64, -0.0141197, -0.0120777, 0.133396, 0.0311949, -0.0186628, -0.0189886, 0.041012, 0.744, 0, 0, 0
689, 17628.4, -1, 64, -0.0206647, -0.0122173, 0.132959, 0.0295401, -0.00915021, -0.0149716, 0.0343583, 0.744, 0, 0, 0
690, 17662.1, -1, 64, -0.0248186, -0.0125315, 0.13254, 0.0274169, -0.000448258, -0.0168534, 0.0321858, 0.744, 0, 0, 0
691, 17687.9, -1, 64, -0.0279776, -0.013282, 0.131615, 0.0246478, 0.014738, -0.0162461, 0.0329948, 0.744, 0, 0, 0
692, 17721.9, -1, 64, -0.0276984, -0.0132994, 0.131545, 0.019989, 0.00916574, -0.0178223, 0.0283056, 0.743, 0, 0, 0
693, 17752.1, -1, 64, -0.0264417, -0.0130376, 0.131179, 0.0171561, 0.0104121, -0.00349698, 0.0203709, 0.746, 0, 0, 0
694, 17779.2, -1, 64, -0.0238587, -0.0102974, 0.130935, 0.0114516, 0.0141242, -0.00666496, 0.0193663, 0.746, 0, 0, 0
695, 17810.6, -1, 64, -0.0202284, 0.00286234, 0.130725, 0.00787767, 0.027293, -0.0229069, 0.0364924, 0.742, 0, 0, 0
696, 17844.3, -1, 64, -0.0171391, 0.0150447, 0.130289, 0.0172659, 0.0216491, -0.034085, 0.0439156, 0.739, 0, 0, 0
697, 17871.5, -1, 64, -0.013247, 0.028414, 0.130062, 0.0151163, 0.0365154, -0.0408132, 0.0568119, 0.736, 0, 0, 0
698, 17902.8, -1, 64, -0.00855211, 0.0439474, 0.130533, 0.0206243, 0.0431107, -0.0374595, 0.0607216, 0.735, 0, 0, 0
699, 17945.6, -1, 64, -0.00275762, 0.066532, 0.1298, 0.0401116, 0.0407751, -0.0535205, 0.0783326, 0.728, 0, 0, 0
700, 17988.5, -1, 64, -0.0010472, 0.081472, 0.130463, 0.0592955, 0.0419852, -0.0376969, 0.0818521, 0.728, 0, 0, 0
701, 18027.4, -1, 64, -0.000261799, 0.0911585, 0.130359, 0.0827364, 0.0375502, -0.0200503, 0.0930449, 0.728, 0, 0, 0
702, 18072.9, -1, 64, 0.00532325, 0.10013, 0.130394, 0.125057, 0.0371889, -0.0120928, 0.131029, 0.728, 0, 0, 0
703, 18124.4, -1, 64, 0.0127235, 0.104336, 0.130655, 0.156601, 0.0403412, -0.0104321, 0.16205, 0.727, 0, 0, 0
704, 18174.8, -1, 64, 0.016249, 0.10458, 0.130463, 0.197117, 0.0417178, 0.0128623, 0.201894, 0.731, 0, 0, 0
705, 18223.1, -1, 64, 0.0158999, 0.103917, 0.130533, 0.258827, 0.0403281, 0.0113318, 0.262195, 0.732, 0, 0, 0
706, 18271.6, -1, 64, 0.0153065, 0.101823, 0.130568, 0.305078, 0.0310651, 0.0267542, 0.30782, 0.736, 0, 0, 0
707, 18315.8, -1, 64, 0.0148178, 0.100042, 0.130202, 0.340565, 0.0277728, 0.034511, 0.343434, 0.74, 0, 0, 0
708, 18361.4, -1, 64, 0.0136485, 0.0973545, 0.129852, 0.364187, 0.0175501, 0.0354447, 0.366328, 0.743, 0, 0, 0
709, 18399.6, -1, 64, 0.0128456, 0.0959582, 0.129364, 0.38151, 0.00529327, 0.0470704, 0.38444, 0.748, 0, 0, 0
710, 18437.6, -1, 64, 0.00888373, 0.0954172, 0.128683, 0.445831, 0.000405297, 0.0537918, 0.449065, 0.753, 0, 0, 0
711, 18475.5, -1, 64, 0.00528835, 0.0935671, 0.127845, 0.463359, -0.00418022, 0.0405935, 0.465153, 0.755, 0, 0, 0
712, 18513.6, -1, 64, 0.00188496, 0.0917171, 0.127217, 0.470298, 0.0215257, 0.0463622, 0.473067, 0.761, 0, 0, 0
713, 18555.4, -1, 64, -0.0018326, 0.0910189, 0.126711, 0.491848, 0.0210764, 0.0382033, 0.493779, 0.764, 0, 0, 0
714, 18596.4, -1, 64, -0.00588176, 0.0903731, 0.126432, 0.521683, 0.0249882, 0.0386885, 0.523712, 0.768, 0, 0, 0
715, 18634.2, -1, 64, -0.0103498, 0.0895878, 0.126222, 0.551941, 0.031407, 0.0236708, 0.55334, 0.769, 0, 0, 0
716, 18675.6, -1, 64, -0.0161443, 0.0883835, 0.126117, 0.575263, 0.0646859, 0.0159286, 0.579107, 0.772, 0, 0, 0
717, 18721, -1, 64, -0.0185703, 0.0894132, 0.126309, 0.576402, 0.0853675, -0.00779841, 0.582742, 0.77, 0, 0, 0
718, 18759.6, -1, 64, -0.0194779, 0.0898845, 0.1261, 0.619191, 0.065519, -0.00889229, 0.622712, 0.771, 0, 0, 0
719, 18805.9, -1, 64, -0.0221308, 0.0902161, 0.126135, 0.63246, 0.0797781, -0.020872, 0.637814, 0.771, 0, 0, 0
720, 18852.4, -1, 64, -0.0243299, 0.0898495, 0.125926, 0.632857, 0.0802627, -0.0293866, 0.638603, 0.77, 0, 0, 0
721, 18898.9, -1, 64, -0.0271224, 0.0673523, 0.125873, 0.652068, 0.0956414, -0.0323217, 0.659837, 0.769, 0, 0, 0
722, 18945.2, -1, 64, -0.0317126, 0.0327424, 0.126536, 0.650775, 0.106391, -0.0377733, 0.660496, 0.768, 0, 0, 0
723, 18985.8, -1, 64, -0.0331089, -0.000837758, 0.127077, 0.637806, 0.12106, -0.0355677, 0.650167, 0.768, 0, 0, 0
724, 19026.1, -1, 64, -0.0316079, -0.0279078, 0.127618, 0.613113, 0.133466, -0.020121, 0.627794, 0.771, 0, 0, 0
725, 19069.9, -1, 64, -0.0281522, -0.0514698, 0.128683, 0.578483, 0.144004, -0.027219, 0.596758, 0.77, 0, 0, 0
726, 19115.8, -1, 64, -0.0232129, -0.0699702, 0.128369, 0.539857, 0.151659, -0.0242702, 0.56128, 0.771, 0, 0, 0
727, 19164.6, -1, 64, -0.01309, -0.0938464, 0.128631, 0.472771, 0.159313, -0.0312146, 0.499867, 0.77, 0, 0, 0
728, 19207.7, -1, 64, -0.00799361, -0.103865, 0.128474, 0.435071, 0.160359, -0.0367396, 0.465137, 0.769, 0, 0, 0
729, 19255.2, -1, 64, 0, -0.118944, 0.128369, 0.465652, 0.147057, -0.0392114, 0.489892, 0.767, 0, 0, 0
730, 19299.9, -1, 64, 0.00493928, -0.124267, 0.128683, 0.489199, 0.155241, -0.027417, 0.513972, 0.77, 0, 0, 0
731, 19348.1, -1, 64, 0.00961676, -0.125018, 0.128055, 0.540762, 0.160186, -0.0316894, 0.564878, 0.769, 0, 0, 0
732, 19390.2, -1, 64, 0.0116413, -0.123831, 0.12809, 0.539568, 0.16017, -0.0363711, 0.564013, 0.768, 0, 0, 0
733, 19436.7, -1, 64, 0.0233874, -0.128927, 0.127461, 0.501655, 0.138958, -0.0474473, 0.522703, 0.765, 0, 0, 0
734, 19481.4, -1, 64, 0.0297928, -0.124966, 0.127566, 0.455243, 0.12151, -0.0499383, 0.473819, 0.763, 0, 0, 0
735, 19526, -1, 64, 0.0319046, -0.111788, 0.12706, 0.413367, 0.115556, -0.0476892, 0.431856, 0.762, 0, 0, 0
736, 19538.7, -1, 64, 0.0319046, -0.0996583, 0.128072, 0.38647, 0.110525, -0.0487937, 0.404915, 0.76, 0, 0, 0
737, 19579.9, -1, 64, 0.0306829, -0.0856433, 0.12788, 0.34875, 0.10341, -0.047988, 0.36691, 0.759, 0, 0, 0
738, 19631.5, -1, 64, 0.0230209, -0.046897, 0.128386, 0.308202, 0.0672188, -0.0475816, 0.319016, 0.757, 0, 0, 0
739, 19677.3, -1, 64, 0.0139277, -0.00741765, 0.128421, 0.284575, 0.0629694, -0.0476899, 0.295335, 0.755, 0, 0, 0
740, 19719.1, -1, 64, 0.00820305, 0.0140499, 0.12809, 0.277131, 0.0527462, -0.0439248, 0.285505, 0.754, 0, 0, 0
741, 19763.6, -1, 64, -0.00214675, 0.0471064, 0.127392, 0.284965, 0.057169, -0.0447424, 0.294067, 0.751, 0, 0, 0
742, 19813.2, -1, 64, -0.00780162, 0.0628668, 0.126117, 0.300242, 0.0610516, -0.0463973, 0.30988, 0.749, 0, 0, 0
743, 19860.4, -1, 64, -0.00792379, 0.0600393, 0.125297, 0.314614, 0.0680666, -0.0411084, 0.324508, 0.748, 0, 0, 0
