#BEGIN frameIdx[0], TimeInSec[1], FlagAnimationStart[2], batteryPercent[3], Roll[4], Pitch[5], Yaw[6], Vx[7], Vy[8], Vz[9], Vmag[10], Altitude[11], PosLatitude(ax)[12], PosLongitude(ay)[13], PosElevation(az)[14], DroneTime[15]
4331, 5.268, -1, 65, -0.00495674, -0.011973, 1.92857, 0, -0, -0, 0, 0, 2044, 2036, 2528, 719689621
4332, 43.92, -1, 65, -0.00492183, -0.0119555, 1.92859, 0, -0, -0, 0, 0, 2044, 2036, 2532, 719724381
4333, 89.171, -1, 65, -0.00497419, -0.0119555, 1.92861, 0, -0, -0, 0, 0, 2044, 2032, 2532, 719764511
4334, 128.49, -1, 65, -0.00509636, -0.011973, 1.92859, 0, -0, -0, 0, 0, 2044, 2036, 2532, 719810043
4335, 169.137, -1, 65, -0.005044, -0.0120079, 1.92859, 0, -0, -0, 0, 0, 2044, 2036, 2532, 719854965
4336, 214.712, -1, 65, -0.00497419, -0.0120253, 1.92859, 0, -0, -0, 0, 0, 2044, 2032, 2532, 719895126
4337, 257.694, -1, 65, -0.00497419, -0.0120428, 1.92859, 0, -0, -0, 0, 0, 2044, 2032, 2532, 719930313
4338, 297.775, -1, 65, -0.00509636, -0.0120428, 1.92857, 0, -0, -0, 0, 0, 2044, 2032, 2532, 719975876
4339, 335.637, -1, 65, -0.00513127, -0.0120079, 1.92857, 0, -0, -0, 0, 0, 2044, 2036, 2532, 720010788
4340, 373.917, -1, 65, -0.00511381, -0.0120079, 1.92857, 0, -0, -0, 0, 0, 2044, 2036, 2532, 720050888
4341, 412.089, -1, 65, -0.00509636, -0.0120079, 1.92855, 0, -0, -0, 0, 0, 2044, 2032, 2528, 720095993
4342, 451.292, -1, 65, -0.00521853, -0.0120253, 1.92855, 0, -0, -0, 0, 0, 2044, 2032, 2532, 720126114
4343, 490.54, -1, 65, -0.00528835, -0.0120079, 1.92854, 0, -0, -0, 0, 0, 2040, 2036, 2532, 720171463
4344, 528.675, -1, 65, -0.00527089, -0.0119904, 1.92854, 0, -0, -0, 0, 0, 2044, 2032, 2528, 720211563
4345, 566.619, -1, 65, -0.00520108, -0.0119904, 1.92854, 0, -0, -0, 0, 0, 2044, 2036, 2532, 720246597
4346, 605.72, -1, 65, -0.00514872, -0.0120253, 1.92854, 0, -0, -0, 0, 0, 2044, 2036, 2528, 720291916
4347, 645.866, -1, 65, -0.00509636, -0.0120253, 1.92857, 0, -0, -0, 0, 0, 2044, 2036, 2528, 720321976
4348, 684.011, -1, 65, -0.00500909, -0.0120253, 1.92855, 0, -0, -0, 0, 0, 2044, 2036, 2532, 721464416
4349, 722.24, -1, 65, -0.00499164, -0.0120428, 1.92855, 0, -0, -0, 0, 0, 2044, 2032, 2528, 721494506
4350, 760.283, -1, 65, -0.00500909, -0.0120602, 1.92854, 0, -0, -0, 0, 0, 2044, 2036, 2528, 721544647
4351, 782.289, -1, 65, -0.00499164, -0.0120602, 1.92854, 0, -0, -0, 0, 0, 2044, 2036, 2528, 721559905
4352, 820.994, -1, 65, -0.00495674, -0.0120428, 1.92859, 0, -0, -0, 0, 0, 2044, 2036, 2528, 721610290
4353, 859.213, -1, 65, -0.00493928, -0.0120428, 1.92857, 0, -0, -0, 0, 0, 2044, 2032, 2528, 721640167
4354, 898.135, -1, 65, -0.00507891, -0.0120079, 1.92859, 0, -0, -0, 0, 0, 2044, 2032, 2532, 721680267
4355, 936.449, -1, 65, -0.00516617, -0.0120079, 1.92859, 0, -0, -0, 0, 0, 2048, 2032, 2532, 721715423
4356, 975.191, -1, 65, -0.00518363, -0.0119904, 1.92859, 0, -0, -0, 0, 0, 2044, 2036, 2528, 721755981
4357, 1013.38, -1, 65, -0.00513127, -0.0120079, 1.92861, 0, -0, -0, 0, 0, 2044, 2036, 2532, 721790985
4358, 1052.31, -1, 65, -0.00520108, -0.0120428, 1.92862, 0, -0, -0, 0, 0, 2044, 2032, 2532, 721835998
4359, 1090.32, -1, 65, -0.00523599, -0.0120602, 1.92862, 0, -0, -0, 0, 0, 2044, 2036, 2532, 721871215
4360, 1129.28, -1, 65, -0.00516617, -0.0120428, 1.92861, 0, -0, -0, 0, 0, 2044, 2036, 2528, 721916320
4361, 1168.34, -1, 65, -0.00514872, -0.0120253, 1.92861, 0, -0, -0, 0, 0, 2040, 2036, 2532, 721946411
4362, 1206.42, -1, 65, -0.00521853, -0.011973, 1.92864, 0, -0, -0, 0, 0, 2044, 2032, 2528, 721991729
4363, 1244.4, -1, 65, -0.00525344, -0.011973, 1.92866, 0, -0, -0, 0, 0, 2044, 2032, 2528, 722006683
4364, 1282.48, -1, 65, -0.00535816, -0.011973, 1.92868, 0, -0, -0, 0, 0, 2044, 2036, 2528, 722067108
4365, 1320.62, -1, 65, -0.00535816, -0.011973, 1.92868, 0, -0, -0, 0, 0, 2044, 2032, 2532, 722102111
4366, 1358.86, -1, 65, -0.00549779, -0.011973, 1.92869, 0, -0, -0, 0, 0, 2044, 2032, 2532, 722142303
4367, 1397.51, -1, 65, -0.00558505, -0.011973, 1.92868, 0, -0, -0, 0, 0, 2044, 2036, 2532, 722177551
4368, 1437.34, -1, 65, -0.00558505, -0.011973, 1.92869, 0, -0, -0, 0, 0, 2044, 2032, 2528, 722217559
4369, 1481.76, -1, 65, -0.00558505, -0.0119904, 1.92869, 0, -0, -0, 0, 0, 2044, 2036, 2532, 722262878
4370, 1520.49, -1, 65, -0.00551524, -0.0119904, 1.92871, 0, -0, -0, 0, 0, 2044, 2036, 2532, 722303008
4371, 1559.61, -1, 65, -0.00549779, -0.0119904, 1.92871, 0, -0, -0, 0, 0, 2044, 2032, 2528, 722338104
4372, 1598.83, -1, 65, -0.0055676, -0.0119904, 1.92875, 0, -0, -0, 0, 0, 2044, 2036, 2528, 722383361
4373, 1637.98, -1, 65, -0.00568977, -0.0119904, 1.92876, 0, -0, -0, 0, 0, 2044, 2036, 2528, 723520644
4374, 1677.19, -1, 65, -0.00558505, -0.011781, 1.9288, -0.00185662, 0.00101588, 0, 0.00211638, 0, 2044, 2036, 2528, 723581069
4375, 1715.53, -1, 65, -0.00553269, -0.0116239, 1.9288, -0.00336373, 0.00107266, 0, 0.00353062, 0, 2044, 2032, 2528, 723601088
4376, 1753.98, -1, 65, -0.00553269, -0.0114145, 1.92883, -0.00440788, 0.00150742, 0, 0.00465851, 0, 2044, 2036, 2528, 723631148
4377, 1792.99, -1, 65, -0.00535816, -0.0111003, 1.92889, -0.00503012, 0.00251524, 0, 0.00562392, 0, 2044, 2036, 2528, 723676375
4378, 1831.38, -1, 65, -0.00527089, -0.0109083, 1.9289, -0.00515981, 0.00248583, 0, 0.00572739, 0, 2044, 2036, 2528, 723706496
4379, 1869.89, -1, 65, -0.00507891, -0.0105941, 1.92889, -0.00518368, 0.00269651, 0, 0.00584309, 0, 2044, 2036, 2532, 723751662
4380, 1908.02, -1, 65, -0.00499164, -0.0103673, 1.92889, -0.00512565, 0.00262753, 0, 0.00575988, 0, 2044, 2032, 2532, 723786940
4381, 1949.35, -1, 65, -0.00493928, -0.0101229, 1.9289, -0.0050472, 0.00202788, 0, 0.00543935, 0, 2044, 2036, 2532, 723826979
4382, 1987.67, -1, 65, -0.00492183, -0.00991347, 1.92894, -0.00466177, 0.00159923, 0, 0.00492845, 0, 2044, 2032, 2532, 723872206
4383, 2033.18, -1, 65, -0.00490438, -0.00963422, 1.92892, -0.00475186, 0.00145557, 0, 0.0049698, 0, 2044, 2032, 2532, 723917403
4384, 2071.08, -1, 65, -0.00486947, -0.00945968, 1.92896, -0.00473997, 0.00147527, 0, 0.00496424, 0, 2044, 2032, 2532, 723947524
4385, 2117.13, -1, 65, -0.00483456, -0.00918043, 1.92896, -0.00463706, 0.00158729, 0, 0.00490121, 0, 2044, 2032, 2532, 723992873
4386, 2156.28, -1, 65, -0.0047822, -0.00898845, 1.92894, -0.00503693, 0.00146483, 0, 0.00524561, 0, 2040, 2036, 2532, 724032912
4387, 2198.99, -1, 65, -0.00460767, -0.00869174, 1.92943, -0.00467172, 0.00191101, 0, 0.00504747, 0, 2036, 2032, 2516, 724073500
4388, 2238.7, -1, 65, -0.00455531, -0.00869174, 1.92841, -0.00497745, 0.00164898, 0, 0.00524348, 0, 2036, 2032, 2528, 724103255
4389, 2285.05, -1, 65, -0.00471239, -0.00813323, 1.92978, -0.00512554, 0.00076254, 0, 0.00518196, 0, 2040, 2016, 2528, 724158553
4390, 2323.52, -1, 65, -0.00459022, -0.00790634, 1.9295, -0.00464917, 0.00179006, 0, 0.00498188, 0, 2044, 2036, 2528, 724198592
4391, 2367.97, -1, 65, -0.00443314, -0.00755728, 1.92887, -0.0049078, 0.00227013, 0, 0.0054074, 0, 2040, 2028, 2532, 724238845
4392, 2422.1, -1, 65, -0.00429351, -0.00715585, 1.92923, -0.0049222, 0.00242881, 0, 0.00548883, 0, 2040, 2040, 2532, 724294142
4393, 2466.4, -1, 65, -0.0042586, -0.00682424, 1.92936, -0.00453382, 0.00218454, 0, 0.00503266, 0, 2040, 2032, 2528, 724339553
4394, 2513.39, -1, 65, -0.00417134, -0.00663225, 1.92932, -0.00405383, 0.00184901, 0, 0.0044556, 0, 2040, 2032, 2528, 724384627
4395, 2552.81, -1, 65, -0.00415388, -0.00651008, 1.92941, -0.00348727, 0.00172226, 0, 0.00388937, 0, 2040, 2036, 2532, 724424727
4396, 2591.29, -1, 65, -0.00404916, -0.00633555, 1.92939, -0.00307327, 0.00180247, 0, 0.00356284, 0, 2048, 2032, 2528, 724469771
4397, 2629.7, -1, 65, -0.00397935, -0.00610865, 1.9292, -0.00343681, 0.00171877, 0, 0.00384263, 0, 2044, 2032, 2528, 724504988
4398, 2668.01, -1, 65, -0.00394444, -0.00586431, 1.92939, -0.00379275, 0.00167028, 0, 0.00414425, 0, 2044, 2032, 2528, 725642271
4399, 2706.71, -1, 65, -0.00389208, -0.00572468, 1.92923, -0.00394021, 0.00158804, 0, 0.00424819, 0, 2036, 2036, 2528, 725662382
4400, 2745.45, -1, 65, -0.00376991, -0.00546288, 1.92936, -0.00380597, 0.00157794, 0, 0.00412011, 0, 2048, 2040, 2528, 725712919
4401, 2789.82, -1, 65, -0.00357792, -0.00511381, 1.92915, -0.00330508, 0.00269935, 0, 0.00426732, 0, 2024, 2028, 2532, 725762815
4402, 2832.51, -1, 65, -0.00357792, -0.00464258, 1.93095, -0.00482589, 0.00156105, 0, 0.00507209, 0, 2064, 2040, 2516, 725802977
4403, 2874.31, -1, 65, -0.00331613, -0.0047473, 1.93012, -0.00371169, 0.00167636, 0, 0.0040727, 0, 2036, 2056, 2536, 725838346
4404, 2921.19, -1, 65, -0.00314159, -0.00443314, 1.93096, -0.00360878, 0.00125306, 0, 0.00382014, 0, 2032, 2060, 2544, 725893400
4405, 2967.29, -1, 65, -0.0031765, -0.00375246, 1.93255, -0.00376704, 0.00204994, 0, 0.00428869, 0, 2064, 2032, 2520, 725938627
4406, 3007.45, -1, 65, -0.00298451, -0.00376991, 1.9315, -0.00181101, 0.00188083, 0, 0.00261099, 0, 2016, 2016, 2536, 725983793
4407, 3050.03, -1, 65, -0.00284489, -0.00345575, 1.93269, -0.00183723, 0.00260676, 0, 0.00318914, 0, 2032, 2012, 2524, 726013914
4408, 3090.78, -1, 65, -0.00277507, -0.00359538, 1.93252, -0.00228827, 0.000841579, 0, 0.00243812, 0, 2020, 2040, 2540, 726059233
4409, 3138.59, -1, 65, -0.00282743, -0.00287979, 1.93342, -0.00296163, 0.00231761, 0, 0.00376066, 0, 2052, 2024, 2512, 726099546
4410, 3182.55, -1, 65, -0.00249582, -0.00303687, 1.93264, -0.00330016, 0.00125294, 0, 0.00353, 0, 2028, 2040, 2548, 726139585
4411, 3224.39, -1, 65, -0.00251327, -0.00258309, 1.93339, -0.00350443, 0.00124682, 0, 0.00371962, 0, 2048, 2060, 2540, 726189634
4412, 3269.69, -1, 65, -0.00258309, -0.00214675, 1.934, -0.00268489, 0.00184394, 0, 0.00325711, 0, 2056, 2032, 2512, 726235289
4413, 3309.33, -1, 65, -0.00240855, -0.00240855, 1.93285, -0.00095401, 0.00131844, 0, 0.00162739, 0, 2008, 2024, 2540, 726280088
4414, 3348.89, -1, 65, -0.00219911, -0.00240855, 1.9332, -0.00166993, 0.00121796, 0, 0.0020669, 0, 2040, 2052, 2544, 726325254
4415, 3387.78, -1, 65, -0.00225147, -0.00225147, 1.93362, -0.00163827, 0.000964926, 0, 0.00190132, 0, 2008, 2024, 2540, 726355650
4416, 3440.42, -1, 65, -0.00218166, -0.00228638, 1.93426, 0.000124311, 0.00191706, 0, 0.00192109, 0, 2020, 2012, 2544, 726410643
4417, 3487.85, -1, 65, -0.00190241, -0.00247837, 1.93398, -0.00140708, 0.000440707, 0, 0.00147448, 0, 2040, 2048, 2520, 726450773
4418, 3534.5, -1, 65, -0.00178024, -0.00232129, 1.93465, -0.00132032, 0.00107543, 0, 0.00170288, 0, 2024, 2032, 2536, 726501127
4419, 3585.07, -1, 65, -0.00162316, -0.00219911, 1.93463, -0.000109207, 0.00166002, 0, 0.00166361, 0, 2016, 2020, 2544, 726551237
4420, 3634.86, -1, 65, -0.00240855, -0.00204204, 1.93421, -0.00012914, -0.000321994, 0, 0.000346926, 0, 2052, 2040, 2528, 726606474
4421, 3684.32, -1, 65, -0.00230383, -0.00190241, 1.93238, -0.000534983, 0.000997739, 0, 0.00113212, 0, 2060, 2056, 2516, 727753949
4422, 3733.93, -1, 65, -0.00240855, -0.001309, 1.93239, -0.00271684, 0.00118942, 0, 0.00296579, 0, 2020, 2036, 2492, 727804090
4423, 3781.76, -1, 65, -0.00303687, -0.00136136, 1.93267, -0.00176201, -0.000615916, 0, 0.00186656, 0, 2032, 2024, 2532, 727859418
4424, 3830.38, -1, 65, -0.0031765, -0.00263545, 1.93299, -0.00193978, -0.00126606, 0, 0.00231639, 0, 2048, 2048, 2496, 727904523
4425, 3878.28, -1, 65, -0.000139626, -0.00113446, 1.93292, -0.00234222, 0.00281157, 0, 0.00365936, 0, 2036, 2072, 2548, 727939679
4426, 3919.85, -1, 65, -0.00237365, -0.000506145, 1.93278, -0.00162293, 0.00231677, 0, 0.00282866, 0, 2024, 1980, 2564, 727984998
4427, 3964.08, -1, 65, -0.000959931, -0.000872665, 1.93325, -0.00280971, -0.0041, 0, 0.00497036, 0, 2044, 2032, 2516, 728035108
4428, 4004.3, -1, 65, -0.0018326, -0.00113446, 1.93138, -0.00106497, 0.00158122, 0, 0.00190641, 0, 2040, 2084, 2584, 728075238
4429, 4056.5, -1, 65, -0.00340339, 0.000628319, 1.93042, -0.00260192, 0.00157842, 0, 0.00304326, 0, 2064, 2048, 2524, 728135602
4430, 4103.07, -1, 65, 0.000645772, -0.000418879, 1.92909, -6.8348e-05, 0.00241672, 0, 0.00241769, 0, 2084, 2056, 2520, 728176007
4431, 4146.92, -1, 65, -0.00315905, 0.00101229, 1.93089, -0.00196747, 0.000702063, 0, 0.00208898, 0, 2092, 2060, 2532, 728216199
4432, 4193.61, -1, 65, -0.00712094, 0.00321141, 1.93033, 0.00255541, 0.00658539, 0, 0.00706381, 0, 1984, 2000, 2572, 728261212
4433, 4238.66, -1, 65, -0.00645772, 0.00148353, 1.93124, 0.000834211, 0.00438711, 0, 0.00446572, 0, 2004, 2032, 2576, 728301435
4434, 4279.73, -1, 65, 0.000122173, 0.000558505, 1.93126, 0.00058068, 0.0020284, 0, 0.00210988, 0, 1996, 1988, 2568, 728351453
4435, 4322.97, -1, 65, 3.49066e-05, 0.00230383, 1.93101, 0.00124105, 0.00092458, 0, 0.0015476, 0, 2096, 2080, 2560, 728396894
4436, 4370.77, -1, 65, 0.0044855, 0.00352557, 1.93163, 0.00218416, -0.0018167, 0, 0.00284094, 0, 2056, 1992, 2600, 728437024
4437, 4415.51, -1, 65, 0.00286234, 0.00720821, 1.9314, 0.00392636, -0.00409324, 0, 0.00567194, 0, 2076, 2076, 2616, 728482007
4438, 4464.79, -1, 65, -0.00350811, 0.0047822, 1.93103, 0.00325048, -0.00137607, 0, 0.00352976, 0, 2004, 2016, 2620, 728527234
4439, 4507, -1, 65, -0.00514872, -0.00397935, 1.93126, 0.00276616, 0.00166599, 0, 0.00322911, 0, 2028, 2076, 2600, 728582471
4440, 4547.44, -1, 65, -0.00705113, -0.0104894, 1.931, -0.00201316, 0.00105401, 0, 0.00227239, 0, 2084, 1996, 2640, 728622998
4441, 4590.26, -1, 65, -0.00776672, -0.0106291, 1.93063, -0.00445624, 0.00396882, 0, 0.00596738, 0, 2060, 1976, 2636, 728657880
4442, 4632.48, -1, 65, -0.00237365, -0.0142244, 1.92957, -0.0062952, 0.00281022, 0, 0.00689397, 0, 1988, 2088, 2580, 728698346
4443, 4674.61, -1, 65, 0.00101229, -0.0129329, 1.92918, -0.00894194, 8.10788e-05, 0, 0.00894231, 0, 1980, 2012, 2600, 729840634
4444, 4716.74, -1, 65, 0.0013439, -0.0131598, 1.92868, -0.00735577, 0.00164936, 0, 0.00753842, 0, 2052, 2008, 2664, 729885495
4445, 4760.62, -1, 65, 0.0031765, -0.0161443, 1.92855, -0.00738288, -0.000428043, 0, 0.00739528, 0, 2036, 2044, 2540, 729925656
4446, 4810.52, -1, 65, 0.00310669, -0.0154811, 1.92876, -0.00639698, -0.000337265, 0, 0.00640586, 0, 2072, 2032, 2644, 729980862
4447, 4860.14, -1, 65, 0.00518363, -0.0161617, 2.06909, -0.00687804, -0.0012763, -6.5442e-09, 0.00699545, 0, 2092, 2004, 2576, 730026242
4448, 4908.69, -1, 65, 0.00537561, -0.0147829, 2.06931, -0.0102467, 0.00222854, 0.108964, 0.109467, 0.316, 1992, 2040, 2584, 730081479
4449, 4956.49, -1, 65, 0.00445059, -0.0145211, 2.06921, -0.0211718, 0.0389161, 0.709383, 0.710765, 0.348, 2076, 2040, 2696, 730121731
4450, 5002.81, -1, 65, 0.00375246, -0.0128282, 2.06987, -0.0222025, 0.0600112, 0.856392, 0.858779, 0.391, 2076, 2060, 2548, 730166745
4451, 5050.08, -1, 65, 0.00568977, -0.00986111, 2.0697, -0.0192159, 0.0699511, 0.918453, 0.921314, 0.445, 2108, 2044, 2520, 730216977
4452, 5094.34, -1, 65, 0.0105767, -0.00656244, 2.06961, -0.0126036, 0.0718453, 0.914529, 0.917433, 0.498, 2104, 2024, 2468, 730267514
4453, 5132.11, -1, 65, 0.0126187, -0.00542797, 2.0694, -0.0151426, 0.0687839, 0.911226, 0.913944, 0.524, 2016, 2044, 2424, 730292324
4454, 5178.64, -1, 65, 0.0154636, -0.0047822, 2.06926, -0.0234875, 0.0674566, 0.882895, 0.88578, 0.571, 2092, 2048, 2480, 730342526
4455, 5220.21, -1, 65, 0.0168948, -0.0044855, 2.06912, -0.0279596, 0.0696231, 0.86784, 0.871077, 0.612, 1996, 2024, 2460, 730387936
4456, 5259.24, -1, 65, 0.0176802, -0.00368264, 2.06865, -0.0715098, 0.0740381, 0.854948, 0.861122, 0.651, 2068, 2036, 2484, 730432888
4457, 5298.49, -1, 65, 0.0182212, -0.00286234, 2.0687, -0.116417, 0.0718524, 0.8566, 0.867455, 0.678, 2104, 2040, 2520, 730463162
4458, 5337.59, -1, 65, 0.0191812, 0.00101229, 2.06849, -0.0812366, 0.0443547, 0.855593, 0.860584, 0.716, 1956, 2028, 2488, 730508541
4459, 5381.24, -1, 65, 0.0199317, 0.00541052, 2.06842, -0.0514682, 0.00489388, 0.818967, 0.820597, 0.742, 1956, 2032, 2504, 730543484
4460, 5420.47, -1, 65, 0.0159349, 0.00865683, 2.06808, -0.0357247, 0.00655686, 0.616143, 0.617212, 0.773, 1972, 2024, 2380, 730593655
4461, 5468.15, -1, 65, 0.010821, 0.00912807, 2.06752, -0.0339452, 0.0132613, 0.414342, 0.415942, 0.793, 2032, 2036, 2336, 730638943
4462, 5514.52, -1, 65, 0.00836013, 0.0095295, 2.06726, -0.0443873, -0.00969684, 0.278903, 0.28258, 0.808, 2036, 2040, 2340, 730679165
4463, 5563.84, -1, 65, 0.0045204, 0.00938987, 2.06689, -0.0567646, -0.03951, 0.132711, 0.149651, 0.822, 2032, 2032, 2380, 730734250
4464, 5618.01, -1, 65, -0.00181514, 0.00977384, 2.06689, -0.0541182, -0.0473347, 0.0255523, 0.0763039, 0.829, 2052, 2036, 2396, 730784665
4465, 5628.7, -1, 65, -0.00246091, 0.00968658, 2.06691, -0.0515978, -0.0439301, 0.0148422, 0.069372, 0.829, 2080, 2060, 2400, 730789486
4466, 5663.84, -1, 65, -0.00827286, 0.01028, 2.06705, -0.0650774, -0.0169184, -0.0501095, 0.0838586, 0.83, 2084, 2064, 2428, 731926769
4467, 5688.75, -1, 65, -0.0107163, 0.0106989, 2.06698, -0.0661373, -0.0293642, -0.085744, 0.112198, 0.828, 1996, 2012, 2464, 731952160
4468, 5725.75, -1, 65, -0.0126885, 0.0114668, 2.06698, -0.0555864, -0.0410795, -0.121839, 0.140079, 0.825, 2044, 2044, 2472, 731997234
4469, 5751.48, -1, 65, -0.0137532, 0.0117286, 2.06703, -0.0504276, -0.0375439, -0.133293, 0.147376, 0.823, 2088, 2064, 2472, 732017284
4470, 5783.03, -1, 65, -0.0153938, 0.0117286, 2.06708, -0.0510502, -0.0397587, -0.151168, 0.164434, 0.818, 1952, 1980, 2504, 732047374
4471, 5811.09, -1, 65, -0.0169471, 0.0119381, 2.06726, -0.050636, -0.042815, -0.172467, 0.184775, 0.812, 2108, 2076, 2492, 732072368
4472, 5846.97, -1, 65, -0.0199142, 0.0117286, 2.06745, -0.0469351, -0.0416562, -0.177815, 0.188564, 0.803, 1968, 1996, 2552, 732117717
4473, 5872.03, -1, 65, -0.020944, 0.0112748, 2.06766, -0.0423555, -0.0305872, -0.192923, 0.199872, 0.797, 1952, 2004, 2548, 732137890
4474, 5902.64, -1, 65, -0.021869, 0.010664, 2.06781, -0.042666, -0.0259851, -0.180926, 0.187696, 0.791, 2028, 2032, 2572, 732167980
4475, 5938.44, -1, 65, -0.0223402, 0.00970403, 2.06797, -0.0433704, -0.0273875, -0.171629, 0.17913, 0.785, 2116, 2060, 2552, 732198436
4476, 5969.35, -1, 65, -0.0217293, 0.00862193, 2.06825, -0.0458513, -0.0234788, -0.161751, 0.169756, 0.778, 2108, 2056, 2564, 732233226
4477, 5998.21, -1, 65, -0.0211185, 0.00877901, 2.06822, -0.0413183, -0.0119879, -0.161882, 0.167501, 0.772, 1964, 2008, 2556, 732258617
4478, 6026.64, -1, 65, -0.0209963, 0.00914553, 2.06828, -0.0419408, -0.00946332, -0.141523, 0.14791, 0.767, 2020, 2076, 2580, 732288402
4479, 6055.86, -1, 65, -0.0208741, 0.011397, 2.06937, -0.0430382, 0.00156842, -0.128242, 0.13528, 0.762, 2116, 2080, 2584, 732318554
4480, 6086.85, -1, 65, -0.0217468, 0.0136834, 2.06809, -0.0382891, 0.00942092, -0.114374, 0.12098, 0.755, 1960, 2028, 2556, 732358715
4481, 6123.87, -1, 65, -0.021677, 0.0142593, 2.06855, -0.0363457, 0.0136642, -0.0962548, 0.103792, 0.752, 2044, 2108, 2556, 732388836
4482, 6149.83, -1, 65, -0.0208392, 0.0131772, 2.06787, -0.0319689, 0.0159391, -0.0840967, 0.0913691, 0.75, 1976, 2036, 2548, 732408886
4483, 6179.98, -1, 65, -0.0180991, 0.00949459, 2.06739, -0.0267422, 0.0244875, -0.0584258, 0.0687631, 0.75, 1988, 2000, 2564, 732444011
4484, 6216.37, -1, 65, -0.0149575, 0.00610865, 2.06712, -0.0278088, 0.0314384, -0.0541144, 0.0684841, 0.747, 2024, 2088, 2520, 732474132
4485, 6245.08, -1, 65, -0.0113446, 0.00331613, 2.06638, -0.0289419, 0.0370708, -0.0469146, 0.0664294, 0.744, 2024, 2076, 2540, 732509594
4486, 6273.94, -1, 65, -0.0079587, 0.00193732, 2.06612, -0.030114, 0.0414932, -0.0162321, 0.0537775, 0.746, 2032, 2052, 2572, 732544658
4487, 6303.91, -1, 65, -0.00572468, 0.00158825, 2.06525, -0.0311469, 0.05366, -0.0126825, 0.0633275, 0.745, 2040, 2100, 2504, 732574535
4488, 6334.67, -1, 65, -0.00427606, 0.00165806, 2.06497, -0.0307437, 0.0505719, -0.00598157, 0.0594851, 0.746, 2048, 2076, 2552, 732594738
4489, 6364.84, -1, 65, -0.00148353, 0.00253073, 2.06448, -0.0340857, 0.0493194, 0.00279804, 0.0600172, 0.747, 2060, 2052, 2568, 732629955
4490, 6395.6, -1, 65, 0.00179769, 0.00301942, 2.06362, -0.0357596, 0.0569303, 0.00147331, 0.0672457, 0.747, 2068, 2040, 2572, 732665111
4491, 6427.28, -1, 65, 0.00450295, 0.00205949, 2.06315, -0.0371564, 0.0637163, 0.000616384, 0.0737614, 0.748, 2064, 2072, 2516, 732695110
4492, 6458.14, -1, 65, 0.00764454, -0.000226893, 2.06254, -0.0362109, 0.065718, 0.00133001, 0.0750457, 0.748, 2076, 2068, 2528, 732730297
4493, 6488.43, -1, 65, 0.0108734, -0.00268781, 2.06212, -0.0386916, 0.0592116, 0.0134422, 0.0719982, 0.752, 1976, 2016, 2504, 732760479
4494, 6518.68, -1, 65, 0.0131772, -0.00438078, 2.06186, -0.0397029, 0.0699864, 0.0191853, 0.0827193, 0.754, 2028, 2048, 2516, 732780590
4495, 6548.42, -1, 65, 0.0161443, -0.00591667, 2.06171, -0.0432214, 0.059147, 0.0101665, 0.0739582, 0.754, 1956, 1996, 2516, 732810650
4496, 6578.86, -1, 65, 0.0159872, -0.0015708, 2.06176, -0.0509117, 0.0588208, 0.00259581, 0.0778372, 0.755, 2020, 2036, 2508, 732850933
4497, 6609.29, -1, 65, 0.0144164, 0.00361283, 2.06205, -0.055423, 0.0475076, 0.00336509, 0.0730753, 0.756, 2088, 2056, 2480, 732871044
4498, 6640.7, -1, 65, 0.0115715, 0.0183609, 2.0631, -0.0488662, 0.038642, -0.00435392, 0.0624505, 0.756, 2068, 2040, 2536, 734008296
4499, 6671.23, -1, 65, 0.00813323, 0.0322886, 2.06396, -0.0472313, 0.0232648, -0.0111578, 0.0538196, 0.756, 2068, 2036, 2564, 734043544
4500, 6701.64, -1, 65, 0.00689405, 0.0398982, 2.06476, -0.0475269, 0.0185373, -0.0134328, 0.052753, 0.756, 2048, 2036, 2592, 734063472
4501, 6731.78, -1, 65, 0.00614356, 0.0516617, 2.06581, -0.0442674, 0.0341718, -0.015865, 0.0581293, 0.755, 2064, 2048, 2600, 734098689
4502, 6769.1, -1, 65, 0.00649262, 0.0631111, 2.06696, -0.0257946, 0.017964, -0.0223066, 0.0385442, 0.753, 1980, 2020, 2488, 734138820
4503, 6795.55, -1, 65, 0.00708604, 0.0694816, 2.06764, -0.0127686, 0.0153537, -0.0241172, 0.0313115, 0.752, 2084, 2044, 2560, 734164027
4504, 6824.12, -1, 65, 0.007662, 0.0761313, 2.06848, 0.00446504, 0.0114844, -0.0220749, 0.025281, 0.752, 1996, 2036, 2484, 734194026
4505, 6856.9, -1, 65, 0.00734784, 0.0818734, 2.06947, 0.0255577, 0.00767628, -0.0211744, 0.0340658, 0.75, 2008, 2052, 2492, 734229213
4506, 6884.13, -1, 65, 0.00617847, 0.083514, 2.06986, 0.0402065, 0.000735378, -0.0187273, 0.04436, 0.75, 2072, 2000, 2584, 734254298
4507, 6915.59, -1, 65, 0.00584685, 0.0834616, 2.07019, 0.0510471, -0.00184113, -0.0168424, 0.0537853, 0.75, 1988, 2064, 2480, 734279536
4508, 6947.4, -1, 65, 0.00637045, 0.0811578, 2.07048, 0.0649466, -0.00381984, -0.0143371, 0.0666199, 0.749, 1996, 2060, 2492, 734314570
4509, 6975.24, -1, 65, 0.00668461, 0.07662, 2.07048, 0.0841531, -0.0054165, -0.0141872, 0.0855123, 0.748, 1996, 2052, 2504, 734349818
4510, 7011.1, -1, 65, 0.00651008, 0.0722392, 2.07083, 0.135028, 0.00580589, -0.0112693, 0.135622, 0.747, 1992, 2064, 2524, 734384913
4511, 7042.02, -1, 65, 0.00581195, 0.070232, 2.07085, 0.14634, 0.00209479, 0.0023349, 0.146374, 0.75, 2012, 1984, 2508, 734415217
4512, 7067.07, -1, 65, 0.005044, 0.0697085, 2.07118, 0.147684, -0.000906133, 0.00062298, 0.147688, 0.75, 2000, 2036, 2532, 734435573
4513, 7099.71, -1, 65, 0.0037001, 0.0692547, 2.07143, 0.153366, -0.0100764, -0.00694776, 0.153854, 0.748, 2028, 2052, 2544, 734470485
4514, 7127.78, -1, 65, 0.00132645, 0.0697957, 2.07146, 0.178078, -0.0180738, -0.00408773, 0.17904, 0.749, 2024, 1964, 2524, 734500758
4515, 7162.73, -1, 65, -0.000750492, 0.070808, 2.07162, 0.188911, -0.0134414, 0.00120365, 0.189393, 0.75, 1988, 2008, 2500, 734530604
4516, 7189.1, -1, 65, -0.00185005, 0.0719948, 2.07192, 0.208025, -0.00600814, -0.000556656, 0.208112, 0.75, 2072, 2028, 2564, 734555568
4517, 7224.45, -1, 65, -0.00132645, 0.0742289, 2.07207, 0.249088, -0.0162706, -0.0130557, 0.24996, 0.747, 1980, 2016, 2520, 734601191
4518, 7253.4, -1, 65, -0.000610865, 0.0749444, 2.07221, 0.262011, -0.0203208, -0.0109845, 0.263027, 0.747, 2020, 1984, 2548, 734620997
4519, 7281.44, -1, 65, -0.00181514, 0.0761138, 2.0724, 0.27535, -0.0246785, -0.00569787, 0.276513, 0.748, 1992, 2032, 2520, 734651057
4520, 7311.19, -1, 65, -0.00280998, 0.0762011, 2.07109, 0.296861, -0.025254, -0.0109306, 0.298134, 0.746, 2000, 2024, 2524, 734686274
4521, 7348.23, -1, 65, -0.00165806, 0.0736354, 2.07246, 0.314242, -0.0248815, -0.00742319, 0.315313, 0.746, 2004, 2032, 2532, 734721431
4522, 7372.33, -1, 65, -0.00111701, 0.0715934, 2.07179, 0.324438, -0.0243754, -0.00584943, 0.325404, 0.746, 1988, 2028, 2536, 734741481
4523, 7407.55, -1, 65, -0.000837758, 0.0680504, 2.07132, 0.347367, -0.0228461, -0.0161839, 0.348493, 0.743, 2060, 2056, 2532, 734771571
4524, 7432.32, -1, 65, -0.000750492, 0.0644201, 2.07141, 0.387171, -0.0210503, -0.020285, 0.388273, 0.74, 2060, 2072, 2536, 734806819
4525, 7465.1, -1, 65, -0.000733038, 0.061645, 2.0705, 0.417615, -0.0208413, -0.011352, 0.418289, 0.74, 2108, 2024, 2536, 734836848
4526, 7498.42, -1, 65, -0.000558505, 0.0596379, 2.07029, 0.420979, -0.0211897, -0.0145597, 0.421764, 0.737, 1956, 2056, 2544, 734862086
4527, 7527.95, -1, 65, -0.000226893, 0.0587652, 2.06973, 0.431624, -0.0225059, -0.00794611, 0.432284, 0.737, 2068, 1988, 2544, 734887263
4528, 7573.12, -1, 65, 0.000122173, 0.057561, 2.0686, 0.457265, -0.0215376, 0.00242084, 0.457778, 0.736, 2032, 1992, 2536, 734937312
4529, 7614.74, -1, 65, -0.000383972, 0.0565487, 2.06757, 0.472107, -0.020981, 0.00487742, 0.472598, 0.735, 2064, 2056, 2536, 734977504
4530, 7661.39, -1, 65, -0.00169297, 0.055868, 2.06654, 0.498805, -0.0244983, 0.0203438, 0.49982, 0.738, 2044, 2040, 2520, 736129893
4531, 7700.47, -1, 65, -0.00270526, 0.0555887, 2.06565, 0.512667, -0.0219246, 0.012375, 0.513285, 0.736, 2036, 1984, 2508, 736159952
4532, 7745.9, -1, 65, -0.00387463, 0.0554317, 2.06457, 0.530271, -0.0156557, 0.0133274, 0.530669, 0.736, 2004, 2072, 2528, 736205210
4533, 7786.37, -1, 65, -0.00382227, 0.0550651, 2.06368, 0.54103, -0.0151126, 0.0191432, 0.541579, 0.737, 2016, 1980, 2536, 736245585
4534, 7825.52, -1, 65, -0.00401426, 0.0544368, 2.06286, 0.555628, -0.0183768, 0.0255737, 0.55652, 0.739, 2028, 2068, 2480, 736290568
4535, 7864.6, -1, 65, -0.00287979, 0.0547684, 2.06212, 0.565748, -0.0179659, 0.00959471, 0.566115, 0.736, 2012, 2060, 2472, 736325693
4536, 7903.52, -1, 65, -0.00172788, 0.0503527, 2.06111, 0.581758, -0.0138514, -0.00107998, 0.581924, 0.735, 2072, 2012, 2548, 736370890
4537, 7942.43, -1, 65, -0.00153589, 0.0497593, 2.06036, 0.604441, -0.0110449, -0.00241693, 0.604547, 0.735, 2044, 2020, 2560, 736401041
4538, 7982.06, -1, 65, -0.00226893, 0.0514698, 2.05998, 0.601149, -0.0107754, -0.00899313, 0.601312, 0.733, 2100, 2036, 2520, 736441202
4539, 8021.4, -1, 65, -0.00277507, 0.053983, 2.05903, 0.64004, -0.00766273, -0.0145132, 0.640251, 0.731, 2008, 2016, 2516, 736486368
4540, 8060.76, -1, 65, -0.00240855, 0.0557284, 2.05883, 0.648754, -0.00349421, -0.00936205, 0.648831, 0.731, 2040, 2024, 2484, 736521586
4541, 8099.99, -1, 65, -0.00226893, 0.0568803, 2.05848, 0.665731, -0.000592757, -0.0137011, 0.665873, 0.73, 1968, 2000, 2540, 736551706
4542, 8139.32, -1, 65, -0.00219911, 0.0583987, 2.0582, 0.684981, -0.000226321, -0.0210189, 0.685303, 0.727, 1968, 2024, 2496, 736606943
4543, 8178.77, -1, 65, -0.00204204, 0.0586082, 2.05813, 0.692125, 0.000187305, -0.0149503, 0.692287, 0.727, 2052, 2036, 2528, 736637034
4544, 8217.18, -1, 65, -0.00226893, 0.0592888, 2.05797, 0.715697, 0.00139603, -0.0113538, 0.715789, 0.726, 2024, 1988, 2552, 736682291
4545, 8255.46, -1, 65, -0.00214675, 0.0604931, 2.05806, 0.723332, 0.0185476, -0.0105286, 0.723646, 0.725, 1932, 2036, 2552, 736712412
4546, 8294.43, -1, 65, -0.000680678, 0.0622908, 2.05804, 0.751896, 0.0242935, -0.00190933, 0.752291, 0.725, 2068, 2096, 2544, 736757548
4547, 8333.52, -1, 65, 0.000296706, 0.0634602, 2.05792, 0.772461, 0.0184108, 0.00112538, 0.772681, 0.725, 2048, 2072, 2544, 736792826
4548, 8372.02, -1, 65, 0.000680678, 0.0645946, 2.05783, 0.786446, 0.0229417, 0.00359393, 0.786789, 0.726, 1996, 2024, 2524, 736832895
4549, 8410.74, -1, 65, 0.00139626, 0.0660782, 2.05818, 0.785699, 0.016323, 0.000402387, 0.785868, 0.725, 2036, 2000, 2516, 736863352
4550, 8450.23, -1, 65, 0.00268781, 0.068766, 2.05806, 0.829145, 0.0292232, 0.00757199, 0.829694, 0.726, 2016, 1964, 2524, 736913279
4551, 8489.2, -1, 65, 0.00427606, 0.06819, 2.0582, 0.886289, 0.0372292, 0.0130551, 0.887166, 0.727, 2064, 2080, 2560, 736953409
4552, 8528.13, -1, 65, 0.00553269, 0.0480489, 2.05795, 0.847554, 0.0232367, 0.0190737, 0.848087, 0.728, 2060, 2072, 2544, 736988901
4553, 8567.64, -1, 65, 0.00827286, 0.00804597, 2.05781, 0.845602, 0.0238887, 0.0185214, 0.846142, 0.729, 1988, 1980, 2564, 737033884
4554, 8606.4, -1, 65, 0.00973894, -0.0125664, 2.05846, 0.831557, 0.0202204, 0.018842, 0.832016, 0.729, 2056, 2068, 2504, 737058817
4555, 8645.62, -1, 65, 0.0113272, -0.0457276, 2.05797, 0.791962, 0.0152268, 0.0251077, 0.792506, 0.732, 2048, 1996, 2500, 738206323
4556, 8684.75, -1, 65, 0.0109083, -0.0621337, 2.05877, 0.762348, 0.0105427, 0.0249014, 0.762827, 0.732, 2064, 2000, 2556, 738236413
4557, 8722.83, -1, 65, 0.0101753, -0.0837933, 2.05883, 0.708886, 0.00556839, 0.0383801, 0.709946, 0.737, 1972, 2068, 2564, 738281793
4558, 8762.22, -1, 65, 0.00932006, -0.100182, 2.05909, 0.65509, 0.00204956, 0.0378114, 0.656184, 0.739, 2044, 2052, 2480, 738321832
4559, 8800.55, -1, 65, 0.00895354, -0.111055, 2.05935, 0.61201, -0.000417518, 0.0342381, 0.612967, 0.74, 2048, 2032, 2536, 738351922
4560, 8838.92, -1, 65, 0.007662, -0.12699, 2.06001, 0.643398, 0.000685356, 0.0440133, 0.644902, 0.745, 2072, 1996, 2540, 738402215
4561, 8877.33, -1, 65, 0.00678933, -0.13528, 2.06006, 0.643246, -0.00131719, 0.0385274, 0.6444, 0.746, 2004, 2036, 2568, 738432245
4562, 8915.71, -1, 65, 0.00544543, -0.143012, 2.06073, 0.62203, -0.0147813, 0.0321506, 0.623036, 0.748, 2084, 2020, 2504, 738472833
4563, 8954.79, -1, 65, 0.00408407, -0.147114, 2.06108, 0.570523, -0.03617, 0.0278321, 0.572346, 0.749, 2052, 2036, 2516, 738507532
4564, 8993.94, -1, 65, 0.00296706, -0.148999, 2.0616, 0.525648, -0.0386485, 0.0230527, 0.527571, 0.75, 2012, 2004, 2564, 738547723
4565, 9033.3, -1, 65, 0.00247837, -0.147899, 2.06204, 0.48429, -0.0368726, 0.0170765, 0.485992, 0.75, 1980, 2048, 2556, 738578210
4566, 9072.59, -1, 65, 0.00015708, -0.142558, 2.06256, 0.395068, -0.0507737, 0.015299, 0.398611, 0.752, 1968, 2064, 2540, 738628381
4567, 9112, -1, 65, -0.00340339, -0.131842, 2.06307, 0.349265, -0.0392045, 0.00586904, 0.351508, 0.751, 2056, 2020, 2500, 738673547
4568, 9150.76, -1, 65, -0.00516617, -0.122313, 2.06329, 0.301677, -0.04918, 0.00375604, 0.305683, 0.751, 2060, 2048, 2500, 738703485
4569, 9189.13, -1, 65, -0.00678933, -0.10561, 2.06357, 0.251293, -0.0363787, 0.000952644, 0.253914, 0.752, 2044, 2012, 2548, 738748956
4570, 9232.87, -1, 65, -0.00757473, -0.0855211, 2.06354, 0.219072, -0.0270616, -0.00155492, 0.220743, 0.752, 1976, 2052, 2556, 738793939
4571, 9271.95, -1, 65, -0.00748746, -0.0678584, 2.06392, 0.159354, -0.023519, -0.0171573, 0.161992, 0.748, 1984, 2052, 2568, 738829065
4572, 9316.69, -1, 65, -0.00706858, -0.0493579, 2.06319, 0.116438, -0.0376641, -0.0266426, 0.125245, 0.744, 2108, 1988, 2528, 738869134
4573, 9323.9, -1, 65, -0.00705113, -0.0458673, 2.06319, 0.10229, -0.0370336, -0.0254714, 0.11173, 0.744, 1976, 2068, 2552, 738879358
4574, 9363.3, -1, 65, -0.00755728, -0.0338419, 2.06308, 0.0691238, -0.0214956, -0.031782, 0.0790586, 0.74, 2060, 2016, 2532, 738924432
4575, 9412.78, -1, 65, -0.00759218, -0.0242077, 2.0628, 0.0476547, -0.0216498, -0.0371128, 0.0641642, 0.737, 1976, 2068, 2544, 738964685
4576, 9457.05, -1, 65, -0.00684169, -0.0136834, 2.06251, 0.0276006, -0.015949, -0.0344369, 0.0469262, 0.734, 2036, 2012, 2556, 739009942
4577, 9503.08, -1, 65, -0.00607375, -0.00401426, 2.06191, 0.00132247, -0.012501, -0.0277242, 0.030441, 0.732, 2088, 2056, 2520, 739055322
4578, 9550.7, -1, 65, -0.00436332, 0.00502655, 2.06127, -0.0152806, -0.0153341, -0.0212869, 0.0303606, 0.73, 2072, 2072, 2500, 739105646
4579, 9596.42, -1, 65, -0.00345575, 0.012514, 2.06069, -0.0032713, 0.00550608, -0.0175569, 0.0186886, 0.728, 2044, 2064, 2492, 739155389
4580, 9641.81, -1, 65, -0.00335103, 0.0167203, 2.06041, -0.0130906, 0.00112878, -0.00938128, 0.0161445, 0.728, 2076, 2056, 2576, 739195642
4581, 9690.98, -1, 65, -0.00310669, 0.0192859, 2.05977, -0.00950613, 0.000292262, -0.00179999, 0.00967945, 0.727, 2016, 2060, 2504, 740337899
4582, 9741.59, -1, 65, -0.00258309, 0.0211185, 2.05914, -0.0116071, 0.00470962, 0.00567199, 0.0137505, 0.727, 2088, 2068, 2544, 740393136
4583, 9790.3, -1, 65, -0.00275762, 0.0222006, 2.05855, -0.02417, 0.00987389, 0.0125405, 0.0289645, 0.727, 2108, 2044, 2552, 740448647
4584, 9815.44, -1, 65, -0.00221657, 0.0228464, 2.05827, -0.015929, 0.0107936, 0.0191448, 0.0271433, 0.729, 2020, 2008, 2540, 740468758
4585, 9848.06, -1, 65, -0.00172788, 0.0239285, 2.05797, -0.0158155, 0.00930242, 0.0208741, 0.027792, 0.729, 2132, 2056, 2528, 740498788
4586, 9876.45, -1, 65, -0.0018675, 0.0246091, 2.05771, -0.0116073, 0.014757, 0.0302225, 0.0355795, 0.732, 1940, 2004, 2540, 740523720
4587, 9911.48, -1, 65, -0.00113446, 0.0241728, 2.05741, -0.015299, 0.0188656, 0.0285809, 0.0375079, 0.733, 2108, 2048, 2508, 740564004
4588, 9937.73, -1, 65, -0.000575959, 0.0242252, 2.05694, -0.0176006, 0.0165454, 0.0271498, 0.0363407, 0.733, 2132, 2064, 2512, 740584084
4589, 9968.16, -1, 65, 5.23599e-05, 0.0245393, 2.05703, -0.0197599, 0.00893326, 0.0283725, 0.0357107, 0.734, 1964, 2040, 2568, 740624276
4590, 10001.5, -1, 65, 0.000401426, 0.0247837, 2.05692, -0.0100299, 0.0199283, 0.0282422, 0.0359911, 0.735, 2076, 2068, 2540, 740654397
4591, 10028.7, -1, 65, 0.000418879, 0.0247837, 2.05652, -0.00926179, 0.0193826, 0.0343014, 0.0404729, 0.737, 1996, 2076, 2580, 740674477
4592, 10058.8, -1, 65, 0.000802851, 0.0243648, 2.0565, -0.021523, 0.0111391, 0.0298222, 0.0384276, 0.738, 1988, 2084, 2580, 740709664
4593, 10089.5, -1, 65, 0.00116937, 0.023527, 2.05612, -0.0202101, 0.00807239, 0.0266471, 0.0344046, 0.738, 1988, 2084, 2568, 740744790
4594, 10122.8, -1, 65, 0.00137881, 0.0234921, 2.05619, -0.018107, 0.0081339, 0.0261273, 0.0328125, 0.739, 2032, 2020, 2524, 740764992
4595, 10156.1, -1, 65, 0.000890118, 0.0236841, 2.05593, -0.0324869, 0.00383501, 0.0251645, 0.0412718, 0.74, 2060, 2000, 2516, 740800057
4596, 10187.5, -1, 65, 0.000314159, 0.0241728, 2.05574, -0.0243352, 0.00301666, 0.0250412, 0.035048, 0.74, 2020, 2052, 2544, 740825265
4597, 10212.6, -1, 65, -0.000226893, 0.0250106, 2.05542, -0.0136141, 0.0110351, 0.0240524, 0.0297596, 0.741, 1996, 2060, 2552, 740860299
4598, 10242.8, -1, 65, -0.000785398, 0.0245393, 2.05502, -0.00356041, 0.0179562, 0.0428534, 0.0465996, 0.741, 1976, 2064, 2552, 740895699
4599, 10277.5, -1, 65, -0.00244346, 0.0193906, 2.05507, -0.012678, 0.0150703, 0.0879987, 0.0901754, 0.744, 1964, 2052, 2568, 740930489
4600, 10304, -1, 65, -0.00326377, 0.0165981, 2.05485, -0.00894996, 0.0240856, 0.0969216, 0.10027, 0.745, 2052, 2044, 2548, 740950722
4601, 10333.7, -1, 65, -0.00225147, 0.0156207, 2.0545, -0.01019, 0.0360424, 0.100755, 0.107491, 0.747, 2116, 2052, 2552, 740986031
4602, 10364.5, -1, 65, 1.74533e-05, 0.0167203, 2.05424, -0.00838787, 0.0374879, 0.102863, 0.109802, 0.75, 2024, 2028, 2488, 741015938
4603, 10395, -1, 65, 0.00169297, 0.0175057, 2.05397, 0.00275597, 0.0192511, 0.110267, 0.111969, 0.754, 2128, 2040, 2536, 741036019
4604, 10425.7, -1, 65, 0.00383972, 0.0183609, 2.05362, 0.00891508, 0.043095, 0.0974441, 0.106921, 0.758, 1952, 2008, 2480, 741081155
4605, 10455.8, -1, 65, 0.00438078, 0.018134, 2.05338, 7.95345e-05, 0.0477632, 0.0943134, 0.105718, 0.76, 2024, 2008, 2500, 741101205
4606, 10492.9, -1, 65, 0.00675442, 0.0172089, 2.053, -0.000931208, 0.0483982, 0.0923446, 0.104263, 0.765, 1996, 2056, 2500, 741146554
4607, 10518.2, -1, 65, 0.00830777, 0.0164585, 2.05279, -0.00555481, 0.0413003, 0.086616, 0.0961193, 0.767, 2040, 2004, 2548, 741171700
4608, 10547.5, -1, 65, 0.010088, 0.0160047, 2.05254, -0.00561633, 0.0350756, 0.0807275, 0.0881974, 0.77, 1952, 2020, 2500, 741201668
4609, 10581.1, -1, 65, 0.0112225, 0.0159349, 2.05286, -0.0013489, 0.0312719, 0.0773331, 0.0834276, 0.773, 1948, 2016, 2520, 741237008
4610, 10609, -1, 65, 0.0117461, 0.0160745, 2.05184, -0.00978426, 0.0148803, 0.0718539, 0.074028, 0.775, 2120, 2024, 2524, 741261971
4611, 10639.8, -1, 65, 0.0120428, 0.0160919, 2.05235, -0.0102374, 0.013973, 0.069006, 0.0711469, 0.777, 1964, 2072, 2512, 741287087
4612, 10673.2, -1, 65, 0.0119031, 0.0159349, 2.05235, -0.0141409, 0.0156348, 0.0666277, 0.0698832, 0.78, 2068, 2092, 2472, 742414574
4613, 10706.9, -1, 65, 0.0107163, 0.0164061, 2.05204, -0.00167804, 0.0430306, 0.0658182, 0.0786542, 0.785, 2072, 2048, 2480, 742464867
4614, 10730.9, -1, 65, 0.0109956, 0.0162665, 2.05202, -0.00634931, 0.0209784, 0.0768585, 0.0799227, 0.786, 2020, 2104, 2480, 742484825
4615, 10762.9, -1, 65, 0.0101055, 0.0150622, 2.05139, -0.00377416, 0.00686682, 0.122405, 0.122655, 0.79, 2004, 2128, 2548, 742519768
4616, 10792.2, -1, 65, 0.00884882, 0.0141197, 2.05177, -0.00907151, 0.00234744, 0.147183, 0.147481, 0.792, 2008, 2108, 2556, 742534935
4617, 10829.7, -1, 65, 0.00527089, 0.0115192, 2.05108, -0.00424732, -0.000170345, 0.229923, 0.229962, 0.8, 2016, 2116, 2580, 742585411
4618, 10854.3, -1, 65, 0.00410152, 0.0107512, 2.05123, -0.00754849, 0.00241515, 0.2595, 0.259621, 0.803, 2080, 2056, 2644, 742605370
4619, 10884.6, -1, 65, 0.00258309, 0.00970403, 2.05097, -0.00244521, 0.00547351, 0.32651, 0.326565, 0.813, 2060, 1984, 2648, 742640434
4620, 10919.7, -1, 65, 0.00167552, 0.00879646, 2.05073, -0.00217979, 0.065805, 0.366999, 0.372858, 0.821, 2084, 2016, 2628, 742670799
4621, 10946.7, -1, 65, 0.00118682, 0.00816814, 2.05076, -0.00361026, 0.0483505, 0.395022, 0.397987, 0.828, 2024, 2024, 2576, 742695641
4622, 10976.8, -1, 65, 0.000575959, 0.0074351, 2.05029, -0.000342008, 0.0507583, 0.436647, 0.439588, 0.839, 2004, 2012, 2576, 742725853
4623, 11012.2, -1, 65, -3.49066e-05, 0.00694641, 2.05008, -0.0150933, 0.107588, 0.48617, 0.498161, 0.853, 1988, 2028, 2604, 742755852
4624, 11042.1, -1, 65, 1.74533e-05, 0.00644026, 2.05008, -0.00948739, 0.0624305, 0.531336, 0.535076, 0.869, 2040, 1960, 2544, 742791099
4625, 11068.6, -1, 65, 0.000122173, 0.00602139, 2.04958, 0.000453215, 0.0499254, 0.571247, 0.573425, 0.887, 2060, 2020, 2604, 742826134
4626, 11098.4, -1, 65, 0.000191986, 0.00563741, 2.04958, 0.0262715, 0.111327, 0.591221, 0.602184, 0.895, 2052, 1996, 2584, 742841209
4627, 11135.8, -1, 65, -8.72665e-05, 0.0045204, 2.04938, -0.000880148, 0.0851274, 0.651585, 0.657123, 0.927, 2036, 2092, 2604, 742891502
4628, 11161.7, -1, 65, -8.72665e-05, 0.00397935, 2.04912, -0.0039355, 0.0734847, 0.672551, 0.676565, 0.94, 2060, 2120, 2600, 742911766
4629, 11191.2, -1, 65, -0.000226893, 0.00457276, 2.05005, -0.0121394, 0.0510115, 0.69693, 0.6989, 0.962, 2060, 2012, 2556, 742946678
4630, 11223.2, -1, 65, -0.000593412, 0.00506145, 2.04868, -0.0179777, 0.0292082, 0.719649, 0.720466, 0.983, 2064, 2076, 2544, 742976768
4631, 11263.2, -1, 65, -0.001309, 0.00537561, 2.0497, -0.0125595, 0.0181772, 0.740587, 0.740917, 1.004, 2032, 2084, 2528, 743007255
4632, 11311.7, -1, 65, -0.00354302, 0.00535816, 2.04923, -0.0230576, -0.0145245, 0.785368, 0.78584, 1.048, 2096, 2040, 2584, 743062614
4633, 11355.3, -1, 65, -0.00467748, 0.00528835, 2.05015, -0.00286631, 0.0309074, 0.801618, 0.802218, 1.082, 2068, 2076, 2544, 743107353
4634, 11400.1, -1, 65, -0.00534071, 0.00507891, 2.05043, -0.00789918, 0.0115109, 0.818934, 0.819053, 1.119, 1948, 2016, 2504, 743152550
4635, 11441.6, -1, 65, -0.00584685, 0.00492183, 2.05069, -0.0170501, -0.00540283, 0.822596, 0.822791, 1.149, 2144, 2056, 2560, 743192802
4636, 11484.1, -1, 65, -0.00605629, 0.0047473, 2.05125, -0.0275597, -0.00354359, 0.830985, 0.831449, 1.185, 2032, 2012, 2548, 743237968
4637, 11528.2, -1, 65, -0.00560251, 0.00488692, 2.05158, -0.00892989, 0.00184361, 0.842163, 0.842212, 1.223, 1936, 2032, 2536, 743283104
4638, 11573.4, -1, 65, -0.00499164, 0.00534071, 2.05198, -0.0293695, -0.000791993, 0.836647, 0.837162, 1.258, 2052, 2096, 2500, 743328392
4639, 11622, -1, 65, -0.00464258, 0.00565487, 2.0523, -0.0294566, -0.00790083, 0.836343, 0.836899, 1.29, 1988, 1984, 2560, 743368614
4640, 11668.5, -1, 65, -0.00415388, 0.00637045, 2.05251, -0.0286431, -0.013121, 0.837948, 0.83854, 1.327, 1964, 2108, 2520, 744511115
4641, 11717.8, -1, 65, -0.00275762, 0.00733038, 2.05282, -0.0227089, -0.0119322, 0.842785, 0.843176, 1.372, 2056, 1976, 2556, 744566383
4642, 11764.7, -1, 65, -0.00171042, 0.00818559, 2.05321, -0.0181316, -0.0120825, 0.83933, 0.839613, 1.405, 2044, 2064, 2500, 744606300
4643, 11802.9, -1, 65, -0.00111701, 0.00862193, 2.05193, -0.0122742, -0.0120648, 0.84131, 0.841486, 1.442, 2124, 1956, 2544, 744651527
4644, 11841.4, -1, 65, -0.000663225, 0.00918043, 2.05368, -0.00748987, -0.0129471, 0.842371, 0.842504, 1.472, 2100, 1984, 2536, 744686561
4645, 11884.8, -1, 65, -1.74533e-05, 0.00947714, 2.05282, -0.00228243, -0.0129822, 0.842765, 0.842868, 1.51, 2108, 2012, 2528, 744732001
4646, 11923.5, -1, 65, 0.00115192, 0.00965167, 2.05364, 0.00220789, -0.0142141, 0.831106, 0.83123, 1.541, 2028, 2032, 2536, 744771949
4647, 11969.5, -1, 65, 0.00237365, 0.00965167, 2.05347, 0.00805588, -0.0162956, 0.82104, 0.821242, 1.576, 2156, 2008, 2540, 744817146
4648, 12016.2, -1, 65, 0.00298451, 0.00925025, 2.0539, 0.0133548, -0.0182873, 0.810698, 0.811014, 1.61, 2012, 2044, 2484, 744862373
4649, 12064.5, -1, 65, 0.00181514, 0.00842994, 2.05446, 0.0178115, -0.0186895, 0.793543, 0.793963, 1.646, 2020, 2032, 2476, 744912971
4650, 12117.2, -1, 65, 0.0010472, 0.00823795, 2.05469, 0.0234563, -0.0186289, 0.791913, 0.792479, 1.681, 1964, 2036, 2524, 744957923
4651, 12164.7, -1, 65, 0.0020944, 0.00851721, 2.05504, 0.0295944, -0.0207535, 0.78067, 0.781507, 1.721, 2012, 1980, 2472, 745013038
4652, 12195, -1, 65, 0.00268781, 0.00860447, 2.0552, 0.0321916, -0.022353, 0.765062, 0.766065, 1.737, 2116, 2024, 2532, 745033241
4653, 12240, -1, 65, 0.00204204, 0.00727802, 2.05537, 0.0380195, -0.0245161, 0.674389, 0.675905, 1.777, 2108, 2088, 2508, 745088416
4654, 12282.6, -1, 65, 0.000558505, 0.00565487, 2.05533, 0.0401047, -0.0251957, 0.605091, 0.606941, 1.799, 2096, 2068, 2488, 745123450
4655, 12324.1, -1, 65, -0.000296706, 0.00328122, 2.05507, 0.0412756, -0.0255705, 0.514865, 0.517149, 1.824, 2004, 2024, 2384, 745168861
4656, 12365.3, -1, 65, -0.000802851, 0.0013439, 2.05472, 0.0421113, -0.0260964, 0.429269, 0.432119, 1.846, 2060, 2020, 2456, 745213874
4657, 12406.3, -1, 65, -0.000680678, -5.23599e-05, 2.05469, 0.0422769, -0.026564, 0.362338, 0.365762, 1.862, 2084, 2044, 2456, 745254096
4658, 12447.4, -1, 65, -0.00106465, -0.00136136, 2.05458, 0.0420371, -0.0267446, 0.30748, 0.311491, 1.875, 2060, 2032, 2464, 745289191
4659, 12487.3, -1, 65, -0.000959931, -0.00293215, 2.05413, 0.0421281, -0.0267966, 0.249454, 0.254401, 1.887, 2064, 2052, 2436, 745329383
4660, 12528.4, -1, 65, -0.000436332, -0.00486947, 2.05429, 0.0412441, -0.0279099, 0.193408, 0.199717, 1.899, 2032, 2028, 2468, 745374549
4661, 12570.9, -1, 65, -0.00010472, -0.00647517, 2.05429, 0.040148, -0.0289195, 0.162004, 0.169392, 1.913, 2008, 2028, 2468, 745414924
4662, 12620.3, -1, 65, -0.0010821, -0.00748746, 2.05434, 0.0391346, -0.0299229, 0.109473, 0.120047, 1.918, 2028, 2020, 2452, 745454963
4663, 12666, -1, 65, -0.00335103, -0.00907571, 2.05429, 0.0366259, -0.0300601, 0.0400251, 0.0620248, 1.92, 2044, 2036, 2480, 746612418
4664, 12698.3, -1, 65, -0.0042586, -0.0100705, 2.0546, 0.0347014, -0.0295054, 0.0104606, 0.0467352, 1.921, 2020, 2024, 2484, 746648001
4665, 12728.4, -1, 65, -0.00466003, -0.0106814, 2.05443, 0.0333898, -0.0296533, -0.00415181, 0.044849, 1.921, 2016, 2036, 2492, 746667593
4666, 12759.5, -1, 65, -0.00535816, -0.0107861, 2.05457, 0.0315394, -0.029466, -0.0436485, 0.0613855, 1.917, 2032, 2004, 2480, 746697775
4667, 12787.5, -1, 65, -0.00645772, -0.0107338, 2.05457, 0.0301582, -0.0283744, -0.07069, 0.081925, 1.913, 2060, 2008, 2492, 746732962
4668, 12820.9, -1, 65, -0.00738274, -0.0103847, 2.05457, 0.0278243, -0.0265308, -0.0872939, 0.095385, 1.91, 2080, 2020, 2500, 746768149
4669, 12848.1, -1, 65, -0.0076969, -0.0101927, 2.05455, 0.0268981, -0.025472, -0.0931633, 0.100258, 1.908, 1996, 2016, 2516, 746788229
4670, 12883.5, -1, 65, -0.00849975, -0.00944223, 2.05443, 0.023491, -0.0239365, -0.106276, 0.111442, 1.903, 2132, 2044, 2500, 746833579
4671, 12911.6, -1, 65, -0.0087441, -0.00923279, 2.05465, 0.022592, -0.0225688, -0.117479, 0.121741, 1.899, 2152, 2044, 2532, 746853629
4672, 12939.9, -1, 65, -0.00898845, -0.00897099, 2.05443, 0.020298, -0.0205519, -0.120462, 0.123877, 1.896, 2056, 2036, 2500, 746883505
4673, 12971.5, -1, 65, -0.0090059, -0.00863938, 2.05444, 0.0184954, -0.0178975, -0.129657, 0.132187, 1.89, 2088, 2032, 2496, 746918784
4674, 12999.8, -1, 65, -0.00856957, -0.00823795, 2.05436, 0.0178272, -0.0159778, -0.139407, 0.141448, 1.885, 2040, 2036, 2560, 746943778
4675, 13030.1, -1, 65, -0.00849975, -0.00762709, 2.05432, 0.0160233, -0.0139603, -0.109584, 0.111626, 1.886, 2168, 2044, 2536, 746974051
4676, 13060.3, -1, 65, -0.00787143, -0.00731293, 2.05429, 0.0152118, -0.0121257, -0.111828, 0.113508, 1.882, 2032, 2012, 2500, 747004141
4677, 13090.5, -1, 65, -0.00802851, -0.00602139, 2.05424, 0.0138461, -0.0102613, -0.125844, 0.127019, 1.875, 2148, 2052, 2556, 747044180
4678, 13121.3, -1, 65, -0.00656244, -0.0042586, 2.05415, 0.0131751, -0.00837345, -0.134206, 0.135111, 1.869, 2068, 2004, 2516, 747074362
4679, 13151.5, -1, 65, -0.0044855, -6.98132e-05, 2.05385, 0.0136235, -0.00795879, -0.140965, 0.141845, 1.863, 2044, 2072, 2568, 747099509
4680, 13181.9, -1, 65, -0.00193732, 0.00431096, 2.05334, 0.0161952, -0.00798781, -0.13856, 0.139732, 1.859, 2140, 2040, 2564, 747129630
4681, 13212, -1, 65, -0.000191986, 0.0058294, 2.05385, 0.0198962, -0.00878189, -0.131092, 0.132884, 1.854, 2132, 2048, 2576, 747164725
4682, 13243.4, -1, 65, 0.000785398, 0.00521853, 2.05294, 0.022692, -0.00999724, -0.124216, 0.126666, 1.85, 2040, 1968, 2552, 747194846
4683, 13274.4, -1, 65, 0.00174533, 0.00450295, 2.05328, 0.0253136, -0.0112779, -0.118708, 0.1219, 1.846, 2052, 1992, 2584, 747230032
4684, 13307.3, -1, 65, 0.00260054, 0.00397935, 2.05282, 0.0275552, -0.013014, -0.0882444, 0.0933581, 1.847, 1964, 1992, 2508, 747260153
4685, 13335.7, -1, 65, 0.00286234, 0.00432842, 2.05245, 0.0282962, -0.0144303, -0.0872143, 0.0928183, 1.845, 1996, 1980, 2560, 747280325
4686, 13369.9, -1, 65, 0.00289725, 0.00443314, 2.05237, 0.0297889, -0.0164356, -0.0807866, 0.0876583, 1.843, 2016, 1988, 2588, 747315451
4687, 13395.7, -1, 65, 0.00397935, 0.00424115, 2.05172, 0.0317695, -0.0175751, -0.0925351, 0.0994028, 1.837, 2028, 1984, 2592, 747350546
4688, 13430.5, -1, 65, 0.00471239, 0.00347321, 2.05127, 0.033995, -0.0187555, -0.0951821, 0.102796, 1.834, 2064, 2088, 2492, 747375815
4689, 13459.9, -1, 65, 0.00509636, 0.0029147, 2.05113, 0.0354449, -0.0203003, -0.0910888, 0.0998279, 1.832, 2024, 1984, 2580, 747400748
4690, 13490.8, -1, 65, 0.00492183, 0.00244346, 2.05034, 0.037726, -0.022689, -0.0853989, 0.0960782, 1.828, 2032, 1976, 2580, 747435873
4691, 13521.1, -1, 65, 0.00434587, 0.00181514, 2.05013, 0.0400748, -0.0241391, -0.0683042, 0.0827898, 1.828, 2072, 2056, 2572, 747466025
4692, 13553.6, -1, 65, 0.00363028, 0.000942478, 2.04963, 0.0410552, -0.0254001, -0.0732334, 0.0877145, 1.826, 1996, 2016, 2520, 747491232
4693, 13584.6, -1, 65, 0.00202458, -0.000959931, 2.04889, 0.0416012, -0.0277788, -0.0623443, 0.079932, 1.824, 2040, 2048, 2536, 747531393
4694, 13611.5, -1, 65, 0.000977384, -0.00242601, 2.04846, 0.0417892, -0.0281245, -0.0601012, 0.0784186, 1.822, 2076, 2024, 2552, 747556418
4695, 13646.2, -1, 65, 0.000349066, -0.001309, 2.04764, 0.0413461, -0.0282293, -0.0562606, 0.0753104, 1.82, 1932, 2060, 2516, 748693701
4696, 13675.5, -1, 65, 0.00127409, 0.00406662, 2.04725, 0.0413074, -0.0285281, -0.0537245, 0.0735288, 1.819, 2140, 2012, 2568, 748718969
4697, 13704, -1, 65, 0.00253073, 0.0143641, 2.04664, 0.045238, -0.0293828, -0.0417997, 0.0682425, 1.819, 2028, 2008, 2556, 748749243
4698, 13741.7, -1, 65, 0.00314159, 0.0269653, 2.04631, 0.0522538, -0.0303925, -0.0411779, 0.0731422, 1.818, 1924, 2044, 2532, 748779119
4699, 13769.3, -1, 65, 0.00279253, 0.0419752, 2.0457, 0.0659499, -0.0313401, -0.028309, 0.0783134, 1.819, 1952, 2012, 2524, 748814245
4700, 13797.7, -1, 65, 0.00350811, 0.0530929, 2.04514, 0.0816438, -0.0318405, -0.0229306, 0.0905834, 1.82, 2004, 2088, 2540, 748844396
4701, 13828.2, -1, 65, 0.00432842, 0.0623781, 2.04511, 0.0957432, -0.0333669, -0.0265075, 0.104799, 1.819, 2052, 1980, 2528, 748869604
4702, 13862.9, -1, 65, 0.00584685, 0.07662, 2.04411, 0.127428, -0.0354734, -0.0214118, 0.133996, 1.819, 2032, 2088, 2524, 748914770
4703, 13889.5, -1, 65, 0.00640536, 0.080512, 2.04409, 0.138496, -0.0362311, -0.0225279, 0.144918, 1.819, 2036, 2092, 2532, 748929846
4704, 13920.1, -1, 65, 0.00722566, 0.0879995, 2.04427, 0.164003, -0.0386724, -0.00445307, 0.16856, 1.822, 2000, 2044, 2564, 748960027
4705, 13952.7, -1, 65, 0.00748746, 0.0959757, 2.04329, 0.198666, -0.04201, -0.00803402, 0.203218, 1.822, 2040, 2040, 2496, 749000128
4706, 13980, -1, 65, 0.00733038, 0.0997456, 2.0435, 0.221853, -0.0438032, -0.0122001, 0.226465, 1.822, 2068, 2036, 2576, 749025243
4707, 14013.3, -1, 65, 0.00747001, 0.104057, 2.04324, 0.256071, -0.0463203, 0.00122219, 0.26023, 1.826, 2044, 2044, 2576, 749060400
4708, 14041.2, -1, 65, 0.00764454, 0.106971, 2.04312, 0.279323, -0.0482151, -0.00544554, 0.283506, 1.826, 2008, 2028, 2476, 749085394
4709, 14071, -1, 65, 0.00773181, 0.110113, 2.04306, 0.313679, -0.0514827, -0.0125909, 0.318125, 1.826, 2016, 2024, 2480, 749120764
4710, 14101.8, -1, 65, 0.00792379, 0.111666, 2.04294, 0.252641, -0.0325151, -0.0177686, 0.255344, 1.825, 1972, 2024, 2492, 749150823
4711, 14134.1, -1, 65, 0.00844739, 0.112609, 2.04293, 0.24535, 0.0340305, -0.0216799, 0.248646, 1.825, 2108, 2036, 2580, 749180822
4712, 14164.2, -1, 65, 0.00912807, 0.113062, 2.0428, 0.242211, 0.036113, -0.0518841, 0.250324, 1.816, 2124, 2032, 2580, 749216131
4713, 14199.9, -1, 65, 0.00980875, 0.113446, 2.04272, 0.207304, -0.0136845, -0.0587093, 0.215891, 1.813, 2096, 2048, 2588, 749246282
4714, 14225.2, -1, 65, 0.0102625, 0.113272, 2.04272, 0.207691, -0.0192426, -0.0360999, 0.211682, 1.815, 1988, 2036, 2512, 749271368
4715, 14256.1, -1, 65, 0.0108734, 0.112609, 2.04258, 0.27003, 0.0223798, -0.0365163, 0.273406, 1.814, 1964, 2048, 2516, 749306432
4716, 14287.1, -1, 65, 0.0114319, 0.111649, 2.04284, 0.275866, 0.0149205, -0.0223803, 0.277174, 1.816, 2044, 2040, 2528, 749336553
4717, 14321.1, -1, 65, 0.0116413, 0.110322, 2.04277, 0.248066, -0.0267553, -0.0382767, 0.252424, 1.813, 2016, 2064, 2540, 749371923
4718, 14349.7, -1, 65, 0.011589, 0.109153, 2.0428, 0.275759, -0.0307784, -0.0375323, 0.279998, 1.812, 2036, 2004, 2520, 749401861
4719, 14383.5, -1, 65, 0.0115541, 0.106919, 2.0427, 0.307942, -0.03511, -0.0359932, 0.31202, 1.811, 2008, 2040, 2540, 749436987
4720, 14415.3, -1, 65, 0.0120428, 0.104667, 2.04273, 0.333988, -0.0387651, -0.0352687, 0.338074, 1.81, 2076, 1996, 2516, 749467107
4721, 14442.7, -1, 65, 0.0127584, 0.102817, 2.04286, 0.354952, -0.0419916, -0.0356276, 0.359198, 1.809, 1988, 2056, 2536, 749492132
4722, 14471.6, -1, 65, 0.0137532, 0.100688, 2.04294, 0.38065, -0.0460735, -0.0243497, 0.3842, 1.81, 2004, 2024, 2556, 749522375
4723, 14502.2, -1, 65, 0.0137706, 0.0983668, 2.04308, 0.408247, -0.0512658, -0.0188864, 0.411886, 1.81, 2004, 2008, 2540, 749557714
4724, 14532.3, -1, 65, 0.0134739, 0.0966389, 2.04348, 0.425926, -0.0545033, -0.0205946, 0.429893, 1.809, 2020, 2060, 2504, 749582678
4725, 14564.4, -1, 65, 0.0126013, 0.0936195, 2.04399, 0.453086, -0.0595237, -0.0229603, 0.457556, 1.808, 2096, 2032, 2532, 749622900
4726, 14593.5, -1, 65, 0.0118682, 0.0925548, 2.04409, 0.462043, -0.0614312, -0.0321861, 0.467219, 1.807, 2068, 2048, 2520, 749637853
4727, 14623.2, -1, 65, 0.0105767, 0.0894656, 2.04485, 0.487476, -0.0660118, -0.0385236, 0.493431, 1.804, 2088, 2036, 2536, 749678106
4728, 14657.4, -1, 65, 0.00872665, 0.0868999, 2.04535, 0.505126, -0.0686633, -0.0370602, 0.511117, 1.803, 2088, 2048, 2488, 750805348
4729, 14684.7, -1, 65, 0.0066148, 0.0847183, 2.04689, 0.521952, -0.0701881, -0.0396471, 0.52814, 1.801, 1988, 2008, 2508, 750835378
4730, 14715.4, -1, 65, 0.00446804, 0.0830079, 2.04649, 0.534523, -0.0705965, -0.0456004, 0.54109, 1.798, 2052, 2072, 2552, 750860555
4731, 14748.6, -1, 65, 0.000506145, 0.0807564, 2.04844, 0.55388, -0.0719288, -0.0439955, 0.560261, 1.796, 2028, 1976, 2556, 750901051
4732, 14777.3, -1, 65, -0.00200713, 0.0798139, 2.0487, 0.563649, -0.0710833, -0.0411507, 0.569602, 1.795, 2008, 2004, 2516, 750920949
4733, 14812.7, -1, 65, -0.0071384, 0.0782257, 2.04947, 0.578818, -0.0688577, -0.0430627, 0.584488, 1.792, 2000, 2032, 2536, 750955861
4734, 14838.6, -1, 65, -0.0112748, 0.0771785, 2.05066, 0.592528, -0.0655034, -0.0352291, 0.597178, 1.792, 2116, 2016, 2552, 750986073
4735, 14873.6, -1, 65, -0.0150273, 0.0760091, 2.05137, 0.607135, -0.0601262, -0.0318993, 0.610938, 1.79, 2116, 2040, 2556, 751021260
4736, 14903.4, -1, 65, -0.0166155, 0.0758171, 2.05214, 0.61483, -0.0568787, -0.0293409, 0.618152, 1.79, 2056, 2064, 2580, 751041402
4737, 14931.9, -1, 65, -0.0189194, 0.0749444, 2.05307, 0.627408, -0.0514821, -0.0203921, 0.629847, 1.79, 2104, 2052, 2536, 751071675
4738, 14962.1, -1, 65, -0.0206822, 0.074543, 2.05364, 0.637618, -0.0448055, -0.0246332, 0.639665, 1.788, 1980, 2020, 2504, 751101857
4739, 14991.3, -1, 65, -0.0219911, 0.0738972, 2.05458, 0.65013, -0.036618, -0.0171879, 0.651387, 1.788, 1976, 2028, 2508, 751136861
4740, 15027.6, -1, 65, -0.0223577, 0.0733911, 2.05511, 0.657275, -0.0319489, -0.0153307, 0.65823, 1.788, 1980, 2052, 2540, 751156789
4741, 15054.2, -1, 65, -0.0229162, 0.0724835, 2.05593, 0.668491, -0.0234759, -0.00748503, 0.668945, 1.788, 1948, 2028, 2540, 751191945
4742, 15087.8, -1, 65, -0.0230733, 0.0722217, 2.05663, 0.676897, -0.0160431, -0.00624028, 0.677116, 1.788, 1964, 2068, 2556, 751222127
4743, 15114.8, -1, 65, -0.0216595, 0.0717679, 2.05734, 0.687818, -0.00716189, 0.00282214, 0.687861, 1.789, 1948, 2060, 2568, 751257283
4744, 15157.4, -1, 65, -0.0193732, 0.0707731, 2.05842, 0.699018, 0.000765606, 0.00257916, 0.699024, 1.79, 1988, 1996, 2512, 751297566
4745, 15195.8, -1, 65, -0.0179943, 0.0703542, 2.05907, 0.709223, 0.00745651, 0.0161549, 0.709446, 1.792, 1996, 2016, 2504, 751332753
4746, 15234.5, -1, 65, -0.017017, 0.070232, 2.06006, 0.720077, 0.0149181, 0.0126392, 0.720343, 1.793, 2096, 2056, 2548, 751377828
4747, 15273.5, -1, 65, -0.017174, 0.0703891, 2.06055, 0.726484, 0.0202001, 0.0102333, 0.726837, 1.794, 1948, 2008, 2564, 751407887
4748, 15316.1, -1, 65, -0.0173311, 0.0709476, 2.06139, 0.737761, 0.0286323, 0.0239507, 0.738705, 1.798, 2004, 2080, 2532, 751453176
4749, 15354.8, -1, 65, -0.0178024, 0.0706509, 2.06177, 0.746702, 0.0351365, 0.0183033, 0.747752, 1.799, 2000, 2028, 2544, 751493459
4750, 15400.8, -1, 65, -0.0180816, 0.0707556, 2.0624, 0.756811, 0.0433019, 0.0130922, 0.758161, 1.8, 2016, 2036, 2564, 751538503
4751, 15438.8, -1, 65, -0.0174358, 0.0716109, 2.06284, 0.765422, 0.0499616, 0.00895525, 0.767103, 1.801, 1948, 2048, 2504, 751583730
4752, 15477.4, -1, 65, -0.0165108, 0.071925, 2.06308, 0.772577, 0.0546136, 0.00771463, 0.774543, 1.801, 2080, 2044, 2488, 751613912
4753, 15522.2, -1, 65, -0.0159349, 0.0724661, 2.06345, 0.781357, 0.0595914, 0.0104116, 0.783695, 1.803, 2008, 2088, 2576, 751654103
4754, 15567.1, -1, 65, -0.0145211, 0.0725533, 2.06223, 0.794859, 0.0682311, 0.00365269, 0.797791, 1.804, 1932, 1996, 2492, 751714467
4755, 15612.9, -1, 65, -0.0133169, 0.0725708, 2.06399, 0.801879, 0.0706991, -0.0023773, 0.804994, 1.803, 2020, 2016, 2564, 751754537
4756, 15654.4, -1, 65, -0.0125838, 0.0739321, 2.06324, 0.810397, 0.0739334, -0.00161106, 0.813764, 1.804, 2004, 2088, 2560, 752896702
4757, 15693.8, -1, 65, -0.0113272, 0.0756077, 2.06349, 0.817492, 0.0767329, 0.00515992, 0.821101, 1.807, 2044, 2104, 2576, 752931858
4758, 15732.1, -1, 65, -0.00958186, 0.0764978, 2.06272, 0.824685, 0.0795483, -0.00260097, 0.828517, 1.806, 1984, 2004, 2484, 752972050
4759, 15773.8, -1, 65, -0.00839503, 0.0770214, 2.06277, 0.831229, 0.0802506, -0.00385228, 0.835103, 1.807, 1972, 2016, 2476, 753007176
4760, 15812.8, -1, 65, -0.00794125, 0.0774403, 2.06232, 0.839254, 0.0816642, -0.00120398, 0.843219, 1.808, 2028, 1996, 2512, 753052372
4761, 15851.2, -1, 65, -0.00778417, 0.0775799, 2.06188, 0.845795, 0.0835139, -0.00742642, 0.849941, 1.808, 2000, 2040, 2536, 753092594
4762, 15890.8, -1, 65, -0.00696386, 0.0779988, 2.06146, 0.852558, 0.0849303, 0.00202103, 0.85678, 1.811, 2008, 2052, 2556, 753127903
4763, 15932.3, -1, 65, -0.00572468, 0.078278, 2.06111, 0.860054, 0.0858276, 0.00645631, 0.86435, 1.814, 2024, 2020, 2500, 753167881
4764, 15978.5, -1, 65, -0.00555015, 0.079395, 2.0609, 0.865983, 0.0869746, -0.00315654, 0.870345, 1.814, 2016, 2068, 2556, 753213169
4765, 16017.4, -1, 65, -0.00397935, 0.0799884, 2.06008, 0.871981, 0.0876781, -0.0109493, 0.876447, 1.813, 2012, 1984, 2488, 753253300
4766, 16056.8, -1, 65, -0.00315905, 0.0810356, 2.06006, 0.877746, 0.0865423, -0.0194334, 0.882216, 1.812, 2000, 2048, 2564, 753293461
4767, 16095.9, -1, 65, -0.00322886, 0.0679806, 2.05975, 0.883445, 0.0861527, -0.0205122, 0.887873, 1.812, 2000, 2028, 2492, 753333592
4768, 16138.3, -1, 65, -0.00211185, 0.0298626, 2.05949, 0.87106, 0.0847268, -0.025734, 0.875549, 1.811, 2056, 2028, 2560, 753378788
4769, 16182.2, -1, 65, -0.000855211, -0.00745256, 2.05924, 0.84439, 0.0833162, -0.0205914, 0.84874, 1.812, 1932, 2044, 2556, 753424046
4770, 16229, -1, 65, 0.000191986, -0.0335976, 2.05923, 0.810538, 0.0818052, -0.0174676, 0.814843, 1.813, 2008, 2040, 2504, 753464176
4771, 16278.8, -1, 65, 0.0016057, -0.063338, 2.05928, 0.750856, 0.0790475, -0.0100182, 0.755071, 1.816, 1940, 2048, 2524, 753519535
4772, 16318.1, -1, 65, 0.00219911, -0.0804946, 2.05958, 0.705342, 0.0771695, -0.00553968, 0.709572, 1.817, 1936, 2044, 2556, 753554722
4773, 16361.5, -1, 65, 0.00293215, -0.0983144, 2.05951, 0.648584, 0.0747321, -0.00183186, 0.652878, 1.819, 2020, 2036, 2512, 753594853
4774, 16400.7, -1, 65, 0.00357792, -0.116047, 2.05958, 0.577808, 0.0711467, -0.00219186, 0.582176, 1.82, 2036, 2052, 2580, 753639988
4775, 16439.1, -1, 65, 0.0034383, -0.126362, 2.05956, 0.527714, 0.0683477, -0.00929045, 0.532202, 1.82, 1988, 2052, 2560, 753670078
4776, 16482.2, -1, 65, 0.00336849, -0.136973, 2.05937, 0.465472, 0.0661309, -0.00424622, 0.470165, 1.823, 1972, 2044, 2552, 753705418
4777, 16527.9, -1, 65, 0.00347321, -0.14762, 2.05931, 0.37126, 0.0636093, 0.00452356, 0.376697, 1.826, 2004, 2036, 2568, 753755558
4778, 16573.8, -1, 65, 0.00488692, -0.154689, 2.05947, 0.258388, 0.0608688, -0.00138737, 0.265464, 1.829, 1936, 2032, 2552, 753815739
4779, 16615.6, -1, 65, 0.00675442, -0.1542, 2.05994, 0.184348, 0.0570903, -0.00835009, 0.193166, 1.83, 1992, 2032, 2508, 753855931
4780, 16662, -1, 65, 0.00752237, -0.131982, 2.06048, 0.11352, 0.0531767, -0.0109262, 0.125833, 1.832, 1988, 2052, 2532, 754993335
4781, 16709.7, -1, 65, 0.00783653, -0.0861844, 2.06109, 0.0522245, 0.0492243, -0.0183655, 0.0740791, 1.833, 1980, 2048, 2564, 755043476
4782, 16749.5, -1, 65, 0.00820305, -0.0621686, 2.06155, 0.0152325, 0.0461095, -0.0314865, 0.057875, 1.831, 1968, 2012, 2492, 755083942
4783, 16789.1, -1, 65, 0.00788889, -0.0455007, 2.06202, -0.0208842, 0.0419687, -0.0391241, 0.0610591, 1.831, 2080, 2076, 2556, 755128986
4784, 16829.1, -1, 65, 0.00727802, -0.0346797, 2.06254, -0.0428179, 0.0393531, -0.0561649, 0.0808488, 1.827, 2080, 2052, 2528, 755163990
4785, 16869, -1, 65, 0.00626573, -0.0248884, 2.06247, -0.0580306, 0.0374063, -0.059441, 0.0911044, 1.825, 1952, 2020, 2540, 755194110
4786, 16911, -1, 65, 0.00572468, -0.0104371, 2.06298, -0.0759998, 0.0357207, -0.0638861, 0.105515, 1.822, 2008, 2052, 2572, 755244373
4787, 16953.3, -1, 65, 0.00483456, 0.000244346, 2.06336, -0.0868195, 0.0333877, -0.0570058, 0.109096, 1.822, 2032, 2020, 2524, 755289478
4788, 17000.9, -1, 65, 0.00389208, 0.00937242, 2.06369, -0.0933185, 0.0316347, -0.069331, 0.120482, 1.818, 2004, 2032, 2532, 755334857
