#BEGIN frameIdx[0], TimeInSec[1], FlagAnimationStart[2], batteryPercent[3], Roll[4], Pitch[5], Yaw[6], Vx[7], Vy[8], Vz[9], Vmag[10], Altitude[11], PosLatitude(ax)[12], PosLongitude(ay)[13], PosElevation(az)[14]
6158, 1.84, -1, 79, 0.000977384, 0.017366, 1.99186, -0.0482159, -0.0300818, 0.0149918, 0.0587745, 0.725, 2032, 2044, 2564
6159, 46.893, -1, 79, 0.00303687, 0.0176976, 1.99128, -0.0495069, -0.0278312, 0.0172902, 0.0593672, 0.724, 2020, 2024, 2516
6160, 93.798, -1, 79, 0.00460767, 0.0182212, 1.99064, -0.0400421, -0.0265114, 0.0127006, 0.0496742, 0.723, 2020, 2012, 2524
6161, 143.06, -1, 79, 0.00443314, 0.0181514, 1.99027, -0.0338551, -0.0324565, 0.0228702, 0.0521789, 0.723, 2028, 2060, 2556
6162, 191.915, -1, 79, 0.00376991, 0.0173835, 1.99023, -0.031786, -0.0413181, 0.0229094, 0.0569418, 0.722, 2068, 2040, 2528
6163, 239.461, -1, 79, 0.00303687, 0.0165283, 1.99044, -0.0251701, -0.0444693, 0.0306706, 0.0595965, 0.724, 2008, 2068, 2556
6164, 281.885, -1, 79, 0.0015708, 0.0150796, 1.99065, -0.0224791, -0.0452983, 0.0314872, 0.0595709, 0.724, 2040, 1988, 2524
6165, 320.147, -1, 79, -0.000750492, 0.0127933, 1.99067, -0.024032, -0.0481892, 0.0362181, 0.064896, 0.726, 2084, 2052, 2504
6166, 357.622, -1, 79, -0.00263545, 0.011013, 1.99097, -0.0182556, -0.0528014, 0.0303213, 0.063566, 0.725, 2012, 2080, 2540
6167, 396.504, -1, 79, -0.00432842, 0.00912807, 1.99126, -0.0161347, -0.0556361, 0.0406855, 0.0707885, 0.728, 2024, 1992, 2540
6168, 434.275, -1, 79, -0.00479966, 0.00736529, 1.99126, -0.0209888, -0.0554772, 0.0416864, 0.0724983, 0.73, 2060, 2004, 2480
6169, 471.996, -1, 79, -0.00520108, 0.00499164, 1.99139, -0.0173816, -0.0487255, 0.0343338, 0.0620895, 0.731, 2064, 2080, 2544
6170, 516.019, -1, 79, -0.00696386, 0.00387463, 1.99165, -0.0140092, -0.0432191, 0.0199861, 0.0496346, 0.73, 1996, 2004, 2540
6171, 555.924, -1, 79, -0.00799361, 0.00307178, 1.99172, -0.0176398, -0.0420584, 0.0178115, 0.0489624, 0.729, 2032, 2060, 2488
6172, 594.561, -1, 79, -0.00818559, 0.0029147, 1.99189, -0.0228969, -0.0502647, 0.0211546, 0.0591467, 0.73, 2072, 2068, 2516
6173, 633.181, -1, 79, -0.00851721, 0.00305433, 1.99041, -0.0255112, -0.039386, 0.0129133, 0.0486707, 0.728, 2024, 1984, 2572
6174, 671.733, -1, 79, -0.00846485, 0.00364774, 1.99318, -0.0280126, -0.0387193, 0.0187437, 0.0513343, 0.728, 2040, 1980, 2564
6175, 710.47, -1, 79, -0.00694641, 0.00359538, 1.99184, -0.0270859, -0.029701, 0.0204348, 0.045093, 0.729, 2072, 2044, 2484
6176, 748.828, -1, 79, -0.00560251, 0.0034383, 1.99313, -0.0295315, -0.0270234, 0.00834171, 0.0408896, 0.726, 2080, 1984, 2516
6177, 786.837, -1, 79, -0.00382227, 0.0039968, 1.99245, -0.0298047, -0.0193686, 0.00295123, 0.0356675, 0.725, 2072, 1984, 2520
6178, 824.638, -1, 79, -0.00338594, 0.00490438, 1.99315, -0.0266961, -0.0122677, 0.00035673, 0.029382, 0.725, 2096, 1992, 2508
6179, 868.323, -1, 79, -0.00347321, 0.00623083, 1.99278, -0.0296212, -0.013597, -0.0055289, 0.0330584, 0.724, 2048, 2032, 2520
6180, 912.969, -1, 79, -0.00392699, 0.00811578, 1.99311, -0.0347478, -0.0180065, -0.00586869, 0.0395738, 0.724, 2092, 2016, 2512
6181, 955.285, -1, 79, -0.00539307, 0.0107861, 1.99315, -0.0370693, -0.0201267, -0.0107685, 0.0435336, 0.722, 1972, 2056, 2536
6182, 1000.54, -1, 79, -0.00729548, 0.0128805, 1.99353, -0.0315628, -0.0179106, -0.0170032, 0.0400763, 0.72, 2080, 2052, 2516
6183, 1045.1, -1, 79, -0.0097913, 0.0159698, 1.99376, -0.0335625, -0.0137103, -0.01259, 0.0383787, 0.719, 1984, 2012, 2536
6184, 1091.03, -1, 79, -0.0112574, 0.0209963, 1.99404, -0.0428999, -0.0139444, -0.0179606, 0.0485534, 0.717, 2048, 2052, 2524
6185, 1135.48, -1, 79, -0.0109781, 0.0260578, 1.99414, -0.0290446, -0.00728619, -0.0116829, 0.0321429, 0.716, 1988, 1984, 2556
6186, 1183.84, -1, 79, -0.0108909, 0.0290423, 1.99381, -0.021023, -0.0067042, -0.00588373, 0.0228371, 0.716, 2080, 2080, 2544
6187, 1192.92, -1, 79, -0.0111876, 0.0294088, 1.99357, -0.0165045, -0.00291794, -0.00491624, 0.0174666, 0.716, 2020, 2000, 2524
6188, 1235.34, -1, 79, -0.0123395, 0.0296008, 1.99341, -0.00611866, 0.00311272, -0.00654932, 0.00948792, 0.714, 2088, 2100, 2540
6189, 1279.1, -1, 79, -0.0119031, 0.028414, 1.99308, 0.00318644, 0.00952448, -0.000613555, 0.0100621, 0.714, 2008, 1988, 2512
6190, 1321.66, -1, 79, -0.0111352, 0.0268257, 1.99346, 0.00841654, 0.0184167, 0.00448472, 0.0207395, 0.715, 2000, 2024, 2588
6191, 1367.03, -1, 79, -0.00986111, 0.0258483, 1.99296, 0.015867, 0.0308519, 0.0163374, 0.0383472, 0.717, 2092, 2104, 2520
6192, 1410.86, -1, 79, -0.00684169, 0.0251851, 1.99318, 0.0198574, 0.0341247, 0.0155687, 0.0424405, 0.717, 2004, 2028, 2592
6193, 1448.61, -1, 79, -0.00376991, 0.0238063, 1.99289, 0.0212891, 0.0435166, 0.016811, 0.0512789, 0.718, 1996, 2008, 2588
6194, 1487.14, -1, 79, -0.000715585, 0.0210836, 1.9928, 0.0302907, 0.0507711, 0.0263318, 0.0647194, 0.721, 2024, 1996, 2492
6195, 1530.38, -1, 79, 0.00167552, 0.0182911, 1.99269, 0.0269395, 0.0506698, 0.0268318, 0.0633491, 0.722, 2056, 2096, 2528
6196, 1573.78, -1, 79, 0.00394444, 0.0159523, 1.99224, 0.0318023, 0.0526266, 0.0322895, 0.0694518, 0.725, 2032, 1992, 2492
6197, 1613.52, -1, 79, 0.00490438, 0.0139277, 1.99221, 0.0316591, 0.0439734, 0.0291722, 0.0615385, 0.727, 2020, 2008, 2484
6198, 1653.15, -1, 79, 0.00486947, 0.0110479, 1.99208, 0.031115, 0.0429167, 0.0296707, 0.0607481, 0.729, 2008, 2076, 2524
6199, 1685.39, -1, 79, 0.00481711, 0.00877901, 1.9921, 0.0355775, 0.0455789, 0.026948, 0.0637918, 0.73, 2000, 2068, 2524
6200, 1716.76, -1, 79, 0.00537561, 0.00715585, 1.99219, 0.042777, 0.0473617, 0.0247169, 0.0684392, 0.731, 1996, 2048, 2524
6201, 1746.98, -1, 79, 0.00616101, 0.0055676, 1.99249, 0.0422423, 0.0428871, 0.0241506, 0.0648611, 0.732, 1960, 2044, 2520
6202, 1777.82, -1, 79, 0.00663225, 0.00356047, 1.99294, 0.0374326, 0.043382, 0.0212685, 0.0611192, 0.733, 1940, 2040, 2524
6203, 1808.62, -1, 79, 0.00680678, 0.0031765, 1.99283, 0.0378825, 0.0428402, 0.0200432, 0.0605978, 0.733, 1944, 2020, 2524
6204, 1838.78, -1, 79, 0.00726057, 0.00256563, 1.99315, 0.0450181, 0.0405765, 0.0178536, 0.063181, 0.734, 1948, 2008, 2528
6205, 1868.79, -1, 79, 0.00750492, 0.00195477, 1.99318, 0.0377655, 0.0343704, 0.0186949, 0.0543789, 0.735, 2052, 2004, 2512
6206, 1899.77, -1, 79, 0.00818559, 0.000488692, 1.99318, 0.029768, 0.0359205, 0.0167836, 0.0495793, 0.736, 1928, 2044, 2552
6207, 1930.09, -1, 79, 0.0082205, 0.000575959, 1.99339, 0.0261324, 0.0353461, 0.0158277, 0.0467201, 0.738, 1928, 2028, 2548
6208, 1961.58, -1, 79, 0.00830777, 0.00141372, 1.99336, 0.0277974, 0.0407404, 0.0149041, 0.0515229, 0.739, 2072, 2068, 2556
6209, 1991.53, -1, 79, 0.00856957, 0.00230383, 1.99338, 0.0245299, 0.0339701, 0.0139937, 0.0441759, 0.739, 1976, 2000, 2504
6210, 2021.35, -1, 79, 0.00856957, 0.00336849, 1.99357, 0.0205395, 0.0286966, 0.0130432, 0.037623, 0.74, 1960, 2032, 2560
6211, 2052.65, -1, 79, 0.00799361, 0.00446804, 1.99374, 0.0248011, 0.0315749, 0.0111176, 0.0416614, 0.741, 2068, 2048, 2552
6212, 2083.76, -1, 79, 0.0074002, 0.00525344, 1.99364, 0.025055, 0.0333004, 0.00949856, 0.0427421, 0.742, 2064, 2036, 2500
6213, 2118.55, -1, 79, 0.00682424, 0.00521853, 1.99386, 0.0237838, 0.0220446, 0.0081618, 0.0334402, 0.743, 2048, 2032, 2568
6214, 2145.31, -1, 79, 0.00567232, 0.00481711, 1.99386, 0.0236367, 0.0197072, 0.00775498, 0.0317365, 0.744, 2044, 2032, 2556
6215, 2175.93, -1, 79, 0.00350811, 0.00350811, 1.99406, 0.0240535, 0.0206132, 0.00304957, 0.0318241, 0.743, 2040, 2024, 2552
6216, 2207.78, -1, 79, 0.00258309, -0.000977384, 1.99385, 0.0213596, 0.0116247, 0.00086232, 0.0243333, 0.743, 2040, 2024, 2560
6217, 2235.82, -1, 79, 0.00244346, -0.00626573, 1.99379, 0.0226382, 0.0210502, 0.00137861, 0.0309435, 0.744, 2044, 2012, 2564
6218, 2268.23, -1, 79, 0.00235619, -0.00912807, 1.99404, 0.016112, 0.0264903, -0.00281785, 0.0311331, 0.743, 1976, 2040, 2532
6219, 2297.47, -1, 79, 0.00204204, -0.0102974, 1.99376, 0.0171021, 0.0227495, -0.00361132, 0.0286891, 0.743, 2096, 2020, 2532
6220, 2333.68, -1, 79, 0.00113446, -0.0116763, 1.99343, 0.014409, 0.0277303, -0.00278216, 0.031374, 0.744, 2008, 2076, 2512
6221, 2363.48, -1, 79, 0.000785398, -0.01213, 1.99353, 0.0119016, 0.0249883, -0.00286301, 0.0278255, 0.744, 2060, 2052, 2504
6222, 2395.5, -1, 79, -0.00020944, -0.0123046, 1.99353, 0.0078546, 0.0256944, -0.0026383, 0.0269973, 0.745, 1964, 2064, 2560
6223, 2421.15, -1, 79, -0.000645772, -0.0117635, 1.99353, 0.0032558, 0.023589, -0.00419554, 0.0241794, 0.745, 2024, 2068, 2524
6224, 2451.22, -1, 79, -0.000593412, -0.0113097, 1.99378, -0.00415372, 0.0244046, -0.00493525, 0.0252427, 0.745, 1968, 2076, 2556
6225, 2486.58, -1, 79, -0.000139626, -0.0101578, 1.99439, -0.00834382, 0.0321968, -0.00634108, 0.0338595, 0.744, 1980, 2056, 2540
6226, 2511.78, -1, 79, 0.000471239, -0.00993092, 1.99477, -0.00550016, 0.0356308, -0.00495413, 0.0363916, 0.745, 1984, 2072, 2564
6227, 2545.82, -1, 79, 0.00174533, -0.00944223, 1.99517, -0.0113178, 0.0390666, -0.00727853, 0.0413191, 0.744, 1996, 2028, 2528
6228, 2572.93, -1, 79, 0.00321141, -0.00895354, 1.99571, -0.0288822, 0.0428578, -0.00646459, 0.0520842, 0.745, 1984, 2024, 2540
6229, 2603.46, -1, 79, 0.00387463, -0.00862193, 1.99599, -0.0265357, 0.0458196, -0.00577599, 0.053263, 0.745, 2008, 1996, 2532
6230, 2633.19, -1, 79, 0.00314159, -0.00546288, 1.99645, -0.0188233, 0.0455653, -0.0067699, 0.0497628, 0.745, 2012, 2084, 2560
6231, 2663.58, -1, 79, 0.000698132, 0.000837758, 1.99695, -0.0283875, 0.0405604, -0.00745244, 0.0500653, 0.745, 2000, 2000, 2560
6232, 2695.02, -1, 79, -0.00158825, 0.0108036, 1.99711, -0.0168427, 0.0408669, -0.00712501, 0.0447722, 0.745, 2016, 1984, 2512
6233, 2725.01, -1, 79, -0.00205949, 0.0208218, 1.9973, -0.00757966, 0.0393669, -0.00733404, 0.0407553, 0.745, 2052, 2080, 2544
6234, 2754.87, -1, 79, -0.0023911, 0.0326726, 1.99758, -0.014864, 0.0359359, -0.00860068, 0.0398283, 0.744, 2044, 1996, 2576
6235, 2786.15, -1, 79, -0.00202458, 0.0462338, 1.99812, -0.014987, 0.0333587, -0.00750922, 0.0373336, 0.745, 2056, 2012, 2568
6236, 2816.38, -1, 79, -0.00282743, 0.0574039, 1.99788, -0.000157038, 0.0393297, -0.00610381, 0.0398009, 0.745, 2028, 2004, 2572
6237, 2846.78, -1, 79, -0.00321141, 0.0654673, 1.99819, 0.010379, 0.0351486, -0.00594985, 0.0371288, 0.746, 2052, 2048, 2500
6238, 2878.07, -1, 79, -0.00331613, 0.0725708, 1.99858, 0.0200251, 0.0380664, -0.0071775, 0.043607, 0.745, 2024, 2032, 2560
6239, 2908.58, -1, 79, -0.00340339, 0.0809135, 1.9988, 0.0457047, 0.0381267, -0.00700149, 0.0599298, 0.745, 2036, 2044, 2556
6240, 2939.01, -1, 79, -0.00352557, 0.0869523, 1.99933, 0.0648576, 0.0500739, -0.00873512, 0.0824027, 0.745, 2036, 2056, 2560
6241, 2970.29, -1, 79, -0.00359538, 0.0910189, 1.99954, 0.0872304, 0.0485303, -0.00800913, 0.100142, 0.745, 2028, 2068, 2552
6242, 3000.47, -1, 79, -0.0037001, 0.0937591, 1.99959, 0.107831, 0.0388435, -0.00582316, 0.114762, 0.746, 2056, 2052, 2528
6243, 3030.95, -1, 79, -0.00338594, 0.0964294, 1.99992, 0.120539, 0.0501689, -0.00568154, 0.130686, 0.746, 2056, 1992, 2520
6244, 3061.96, -1, 79, -0.00289725, 0.0985936, 1.99999, 0.128771, 0.0524969, -0.00670933, 0.139223, 0.746, 2008, 2096, 2540
6245, 3092.72, -1, 79, -0.00211185, 0.100269, 1.9999, 0.158188, 0.0536344, -0.00724993, 0.16719, 0.746, 2072, 2040, 2516
6246, 3122.61, -1, 79, -0.00116937, 0.100705, 1.99982, 0.19626, 0.066865, -0.00545741, 0.20741, 0.747, 2052, 2052, 2512
6247, 3153.2, -1, 79, -0.000244346, 0.100217, 2.00008, 0.234974, 0.0825649, -0.00513816, 0.24911, 0.747, 2104, 1984, 2512
6248, 3189.99, -1, 79, 0.000645772, 0.0993092, 2.00006, 0.273698, 0.0776625, -0.00288767, 0.284517, 0.749, 2108, 2000, 2508
6249, 3218.26, -1, 79, 0.00207694, 0.0985064, 2.00009, 0.298965, 0.0638497, -0.00200225, 0.305714, 0.75, 2100, 2016, 2516
6250, 3245.2, -1, 79, 0.00258309, 0.0981399, 2.00008, 0.311224, 0.0738189, -0.00272582, 0.31987, 0.75, 2028, 2036, 2540
6251, 3275.79, -1, 79, 0.00328122, 0.0972672, 1.99985, 0.33741, 0.0626103, -0.00226131, 0.343178, 0.751, 2000, 2032, 2548
6252, 3307.01, -1, 79, 0.00352557, 0.0960629, 2.00006, 0.366377, 0.0677024, -0.00327754, 0.372594, 0.752, 2056, 2020, 2524
6253, 3339.43, -1, 79, 0.00385718, 0.0949983, 2.00011, 0.378506, 0.0849304, -0.00437115, 0.387942, 0.752, 2016, 2044, 2540
6254, 3370.88, -1, 79, 0.00420624, 0.0940383, 1.99894, 0.429281, 0.0839329, -0.00590683, 0.437449, 0.753, 2004, 2060, 2496
6255, 3417.02, -1, 79, 0.00408407, 0.0933053, 1.99859, 0.463894, 0.0910667, -0.00547942, 0.47278, 0.755, 2108, 2016, 2524
6256, 3462.49, -1, 79, 0.00376991, 0.093218, 1.99788, 0.50262, 0.092557, -0.00908053, 0.511152, 0.754, 1980, 2064, 2520
6257, 3509.71, -1, 79, 0.00354302, 0.0925723, 1.99735, 0.539542, 0.0795313, -0.0120813, 0.545506, 0.754, 2108, 2008, 2488
6258, 3548.79, -1, 79, 0.00308923, 0.0914902, 1.9972, 0.580968, 0.0760932, -0.0138384, 0.586093, 0.754, 2000, 2036, 2544
6259, 3594.21, -1, 79, 0.00237365, 0.0896401, 1.99671, 0.64172, 0.0824182, -0.0223916, 0.647379, 0.751, 2012, 2020, 2552
6260, 3633.29, -1, 79, 0.00242601, 0.0884184, 1.99664, 0.664701, 0.0901604, -0.0183286, 0.671039, 0.751, 2060, 2044, 2524
6261, 3671.51, -1, 79, 0.00235619, 0.0875457, 1.99627, 0.660663, 0.0795249, -0.0176509, 0.665666, 0.751, 2068, 2036, 2488
6262, 3714.64, -1, 79, 0.00272271, 0.0868825, 1.99634, 0.720048, 0.0830297, -0.0177675, 0.725037, 0.75, 1944, 2076, 2552
6263, 3760.87, -1, 79, 0.00197222, 0.0851197, 1.99598, 0.743749, 0.0789894, -0.0169932, 0.748125, 0.75, 2012, 2048, 2532
6264, 3804.33, -1, 79, 0.0010821, 0.0840376, 1.9955, 0.761371, 0.0752662, -0.0173615, 0.76528, 0.749, 2000, 2024, 2564
6265, 3849.41, -1, 79, -0.000296706, 0.0832522, 1.99489, 0.751356, 0.0579253, -0.0172262, 0.753783, 0.749, 1988, 2052, 2520
6266, 3896.34, -1, 79, -0.000680678, 0.082973, 1.99427, 0.793509, 0.0755924, -0.0203729, 0.797362, 0.747, 2052, 2020, 2488
6267, 3941.44, -1, 79, -0.000122173, 0.0828682, 1.99456, 0.819191, 0.0812418, -0.0197895, 0.823447, 0.747, 2016, 2020, 2500
6268, 3988.44, -1, 79, -0.000174533, 0.082781, 1.9942, 0.813984, 0.0793208, -0.0206474, 0.818101, 0.745, 2048, 2068, 2524
6269, 4037.01, -1, 79, -0.00164061, 0.0828333, 1.99393, 0.825996, 0.0665159, -0.0208646, 0.828932, 0.744, 2012, 2024, 2540
6270, 4076.53, -1, 79, -0.00319395, 0.0827461, 1.99343, 0.82798, 0.0601272, -0.0238578, 0.830503, 0.742, 2024, 2052, 2492
6271, 4117.03, -1, 79, -0.00450295, 0.0821352, 1.99301, 0.846937, 0.0563233, -0.0250237, 0.849177, 0.74, 1984, 2040, 2508
6272, 4157.46, -1, 79, -0.00572468, 0.0816989, 1.99207, 0.887436, 0.0880082, -0.0212717, 0.892043, 0.739, 2016, 2064, 2552
6273, 4200.87, -1, 79, -0.00666716, 0.0821526, 1.99125, 0.911704, 0.0817734, -0.0170951, 0.915524, 0.739, 1932, 2004, 2556
6274, 4246.37, -1, 79, -0.00558505, 0.0836536, 1.99036, 0.931607, 0.0777211, -0.0212128, 0.935084, 0.736, 2036, 2068, 2544
6275, 4290.26, -1, 79, -0.00246091, 0.0843692, 1.98969, 0.945232, 0.076661, -0.0155, 0.948462, 0.736, 1976, 2020, 2488
6276, 4333.85, -1, 79, -0.000837758, 0.0849277, 1.98898, 0.957379, 0.0752463, -0.000231847, 0.960331, 0.738, 1976, 2056, 2544
6277, 4376.6, -1, 79, 0.00101229, 0.0656942, 1.98826, 0.965482, 0.0732836, -0.00337941, 0.968265, 0.738, 2132, 2028, 2548
6278, 4419.13, -1, 79, 0.00471239, 0.0222355, 1.98687, 0.950481, 0.0682464, -0.000517062, 0.952928, 0.738, 2104, 2028, 2532
6279, 4464, -1, 79, 0.00666716, -0.0044855, 1.98613, 0.930318, 0.0644244, 0.000880503, 0.932546, 0.738, 2084, 2060, 2548
6280, 4510, -1, 79, 0.00747001, -0.0290946, 1.98477, 0.898644, 0.0594052, 0.0119954, 0.900685, 0.741, 1996, 2008, 2556
6281, 4557.95, -1, 79, 0.00563741, -0.0537212, 1.98416, 0.849925, 0.0537163, 0.0190385, 0.851833, 0.743, 2020, 1980, 2528
6282, 4602.85, -1, 79, 0.00586431, -0.0693245, 1.9835, 0.809214, 0.0504477, 0.0277223, 0.811258, 0.746, 2020, 1964, 2544
6283, 4640.83, -1, 79, 0.00778417, -0.0927293, 1.98318, 0.734337, 0.0430945, 0.035296, 0.736447, 0.751, 2016, 2020, 2552
6284, 4679.68, -1, 79, 0.00987856, -0.10828, 1.98289, 0.674714, 0.0373039, 0.0396868, 0.676909, 0.754, 1988, 2004, 2488
6285, 4717.7, -1, 79, 0.0111003, -0.120079, 1.98266, 0.618322, 0.0304527, 0.0400952, 0.620368, 0.757, 1984, 1956, 2516
6286, 4756.55, -1, 79, 0.0116064, -0.13172, 1.98229, 0.54971, 0.0233289, 0.0463222, 0.552151, 0.762, 1968, 2068, 2544
6287, 4795.67, -1, 79, 0.0118857, -0.135315, 1.98241, 0.523004, 0.0206695, 0.0415483, 0.525058, 0.763, 1944, 2024, 2552
6288, 4833.68, -1, 79, 0.0129678, -0.144845, 1.98264, 0.43291, 0.0122003, 0.0444191, 0.435354, 0.769, 2000, 2024, 2584
6289, 4871.53, -1, 79, 0.0127409, -0.149156, 1.98343, 0.360743, 0.00552964, 0.0442201, 0.363485, 0.774, 2020, 2016, 2472
6290, 4909.26, -1, 79, 0.0122871, -0.148318, 1.98428, 0.270949, -0.00246683, 0.0366693, 0.27343, 0.779, 2072, 2016, 2504
6291, 4947.4, -1, 79, 0.00933751, -0.133605, 1.98502, 0.220597, -0.006482, 0.0237861, 0.22197, 0.78, 2032, 2028, 2480
6292, 4985.45, -1, 79, 0.005044, -0.101055, 1.9861, 0.177089, -0.0156525, 0.0324908, 0.180724, 0.787, 2044, 2040, 2560
6293, 5023.65, -1, 79, 0.00193732, -0.0808437, 1.98641, 0.140878, -0.0178282, 0.015948, 0.142894, 0.788, 2084, 2040, 2532
6294, 5061.77, -1, 79, -0.0021293, -0.0674395, 1.98659, 0.208075, -0.0188255, -0.000207417, 0.208925, 0.789, 2064, 2044, 2528
6295, 5100.58, -1, 79, -0.00497419, -0.0596728, 1.98669, 0.411538, -0.0358148, -0.00787218, 0.413168, 0.79, 2064, 2056, 2544
6296, 5138.77, -1, 79, -0.00668461, -0.0651182, 1.98694, 0.515391, -0.0293626, -0.0226909, 0.516725, 0.789, 2060, 2028, 2488
6297, 5182.86, -1, 79, -0.0076969, -0.087982, 1.98746, 0.524294, -0.0175002, -0.0337648, 0.525671, 0.788, 1960, 2036, 2572
6298, 5231.98, -1, 79, -0.00666716, -0.110968, 1.98819, 0.477636, -0.0107214, -0.0312489, 0.478777, 0.789, 2056, 2028, 2508
6299, 5276.86, -1, 79, -0.00479966, -0.122348, 1.98863, 0.437172, -0.00969565, -0.0323844, 0.438477, 0.789, 2036, 2016, 2572
6300, 5321.94, -1, 79, -0.00333358, -0.126955, 1.98887, 0.396189, -0.00350776, -0.030798, 0.397399, 0.79, 1948, 2060, 2524
6301, 5364.93, -1, 79, -0.00190241, -0.125, 1.98903, 0.316953, -0.00872038, -0.0345526, 0.31895, 0.79, 2108, 2016, 2500
6302, 5410.85, -1, 79, 0.000191986, -0.11788, 1.98875, 0.278174, -0.0142639, -0.0345652, 0.280676, 0.79, 1988, 2048, 2540
6303, 5453.87, -1, 79, 0.000523599, -0.10917, 1.98872, 0.217744, -0.0132432, -0.0476042, 0.22328, 0.788, 2024, 2052, 2520
6304, 5491.7, -1, 79, -0.000523599, -0.0948936, 1.9884, 0.162634, -0.0186068, -0.0448586, 0.16973, 0.788, 2036, 2020, 2512
6305, 5530.53, -1, 79, -0.00179769, -0.085748, 1.98817, 0.13652, -0.0196437, -0.051768, 0.147321, 0.787, 2020, 1996, 2540
6306, 5569.24, -1, 79, -0.00221657, -0.0742289, 1.98788, 0.07532, -0.0219739, -0.0590059, 0.0981715, 0.785, 2072, 2016, 2496
6307, 5584.93, -1, 79, -0.00230383, -0.0698655, 1.98735, 0.0507487, -0.0207981, -0.061241, 0.0822098, 0.784, 2072, 1976, 2512
6308, 5623.87, -1, 79, -0.00319395, -0.0564265, 1.98842, 0.0231045, -0.0400206, -0.0695902, 0.083536, 0.78, 2004, 2076, 2556
6309, 5661.97, -1, 79, -0.00394444, -0.0475253, 1.98772, 0.0110388, -0.0387703, -0.0759667, 0.0859996, 0.777, 2008, 2092, 2524
6310, 5700.48, -1, 79, -0.00589921, -0.0355349, 1.98845, -0.0193265, -0.0465807, -0.0793331, 0.0940054, 0.773, 2080, 1964, 2532
6311, 5738.49, -1, 79, -0.0068766, -0.0280823, 1.98826, -0.0303003, -0.0328225, -0.0783693, 0.0902063, 0.771, 2068, 2040, 2536
6312, 5776.98, -1, 79, -0.00825541, -0.017558, 1.9883, -0.0506126, -0.0377463, -0.0783003, 0.100585, 0.767, 1980, 2052, 2528
6313, 5814.83, -1, 79, -0.00902335, -0.011013, 1.98812, -0.0674083, -0.0373843, -0.0793003, 0.110589, 0.764, 2040, 2016, 2564
6314, 5852.59, -1, 79, -0.0105069, -0.00178024, 1.98779, -0.0873747, -0.0314753, -0.0728437, 0.118031, 0.761, 2056, 2044, 2588
6315, 5890.55, -1, 79, -0.0109607, 0.00321141, 1.98741, -0.109863, -0.0343421, -0.0674493, 0.133412, 0.76, 2100, 2048, 2524
6316, 5928.87, -1, 79, -0.0111352, 0.00980875, 1.98727, -0.1099, -0.0291809, -0.0657171, 0.131333, 0.757, 2016, 2048, 2580
6317, 5970.97, -1, 79, -0.0111527, 0.0176802, 1.98711, -0.114146, -0.0247046, -0.0621316, 0.132287, 0.754, 2068, 2080, 2576
6318, 6011.43, -1, 79, -0.0102625, 0.0214152, 1.98699, -0.110841, -0.0197396, -0.0577, 0.12651, 0.752, 2088, 2056, 2532
6319, 6051.83, -1, 79, -0.00881391, 0.0251502, 1.98714, -0.123524, -0.0120882, -0.0510214, 0.134192, 0.751, 1980, 1984, 2512
6320, 6084.9, -1, 79, -0.00607375, 0.0275064, 1.98716, -0.148569, -0.00948223, -0.0414377, 0.154531, 0.75, 1976, 1992, 2508
6321, 6115.87, -1, 79, -0.00507891, 0.0298451, 1.98728, -0.139658, -0.0241473, -0.0428269, 0.148059, 0.749, 2052, 2032, 2536
6322, 6150.29, -1, 79, -0.00511381, 0.0325155, 1.98777, -0.139451, -0.0160396, -0.041727, 0.146441, 0.748, 2116, 2064, 2548
6323, 6178.1, -1, 79, -0.00528835, 0.0341735, 1.98741, -0.132368, -0.0145954, -0.0368937, 0.138186, 0.747, 1972, 2008, 2520
6324, 6213.93, -1, 79, -0.00476475, 0.0364425, 1.98756, -0.128806, -0.0107192, -0.032501, 0.133275, 0.747, 2132, 2056, 2536
6325, 6245.14, -1, 79, -0.00413643, 0.0368788, 1.98737, -0.1214, -0.0108768, -0.0333203, 0.126359, 0.745, 2052, 2024, 2540
6326, 6271.9, -1, 79, -0.00404916, 0.0368614, 1.98727, -0.12671, 0.00127447, -0.0329782, 0.130938, 0.745, 1980, 2016, 2540
6327, 6303.37, -1, 79, -0.00352557, 0.0365123, 1.98721, -0.124853, -0.00135027, -0.0315856, 0.128794, 0.744, 2144, 2048, 2532
6328, 6331.99, -1, 79, -0.00211185, 0.0367392, 1.98707, -0.114783, -0.000152806, -0.0235957, 0.117183, 0.744, 2148, 2048, 2528
6329, 6365.93, -1, 79, -0.000977384, 0.0368788, 1.98699, -0.11214, 0.00277584, -0.0166764, 0.113407, 0.745, 2060, 2008, 2524
6330, 6392.85, -1, 79, -0.00020944, 0.0365996, 1.98694, -0.109639, 0.00195987, -0.0141185, 0.110562, 0.745, 2048, 2064, 2540
6331, 6429.35, -1, 79, 0.000785398, 0.0357967, 1.98707, -0.105342, 0.000256324, -0.0150963, 0.106419, 0.745, 2008, 2008, 2528
6332, 6455.51, -1, 79, 0.00232129, 0.0345924, 1.98728, -0.0994261, -0.00442493, -0.0100294, 0.100029, 0.746, 2032, 1996, 2524
6333, 6490.28, -1, 79, 0.00314159, 0.0332834, 1.98763, -0.0913345, 0.000971094, -0.00820476, 0.0917075, 0.746, 1924, 2040, 2544
6334, 6517.24, -1, 79, 0.00321141, 0.0315032, 1.98772, -0.0839318, -0.00167658, 0.0163146, 0.0855191, 0.746, 2156, 2020, 2540
6335, 6547.72, -1, 79, 0.005044, 0.0255167, 1.98795, -0.0830485, -0.00267602, 0.0446392, 0.0943232, 0.747, 2148, 2044, 2588
6336, 6579.7, -1, 79, 0.00637045, 0.025412, 1.98795, -0.0862348, 0.000356419, 0.0622987, 0.106385, 0.751, 1932, 2016, 2560
6337, 6608.4, -1, 79, 0.00747001, 0.0320442, 1.98809, -0.0858938, -0.00194227, 0.0648942, 0.10767, 0.754, 2128, 2024, 2536
6338, 6639.32, -1, 79, 0.00799361, 0.0374548, 1.98784, -0.0758072, -0.00567784, 0.0648544, 0.0999253, 0.757, 2028, 1992, 2504
6339, 6668.81, -1, 79, 0.00935496, 0.0408407, 1.98884, -0.0705084, -0.0126883, 0.0608908, 0.0940219, 0.759, 2044, 1996, 2508
6340, 6702.2, -1, 79, 0.00977384, 0.0423068, 1.98781, -0.086593, -0.0153023, 0.0536282, 0.102998, 0.761, 1964, 2020, 2508
6341, 6735.54, -1, 79, 0.00897099, 0.0430573, 1.98819, -0.0749614, -0.0229634, 0.0470078, 0.0914126, 0.763, 1976, 2016, 2504
6342, 6760.93, -1, 79, 0.00863938, 0.0435111, 1.9884, -0.0703194, -0.0260542, 0.046814, 0.0884036, 0.765, 2008, 2044, 2520
6343, 6792.47, -1, 79, 0.00753982, 0.0440172, 1.98784, -0.0546954, -0.0325408, 0.0443459, 0.0775697, 0.767, 1984, 2008, 2524
6344, 6825.55, -1, 79, 0.00603884, 0.0432667, 1.98852, -0.0496768, -0.0321535, 0.0357414, 0.0691309, 0.769, 1976, 2012, 2532
6345, 6855.44, -1, 79, 0.00460767, 0.0416959, 1.98823, -0.0357196, -0.0443759, 0.0389066, 0.0689843, 0.772, 2016, 2028, 2524
6346, 6884.38, -1, 79, 0.00319395, 0.0397062, 1.9883, -0.0282452, -0.0386165, 0.033841, 0.0586024, 0.773, 2032, 2032, 2520
6347, 6918.33, -1, 79, 0.00151844, 0.0370533, 1.98852, -0.0216365, -0.0453532, 0.0332709, 0.0602661, 0.775, 1940, 2020, 2540
6348, 6951.57, -1, 79, 6.98132e-05, 0.0344004, 1.98819, -0.0189951, -0.0479933, 0.0252076, 0.0574421, 0.776, 2084, 2040, 2524
6349, 6978.97, -1, 79, -0.00181514, 0.031381, 1.98851, -0.0110778, -0.0505901, 0.0235396, 0.0568875, 0.778, 2076, 2036, 2532
6350, 7010.76, -1, 79, -0.00261799, 0.0291121, 1.98866, -0.00741238, -0.0426585, 0.0524924, 0.0680452, 0.781, 2144, 2044, 2516
6351, 7039.81, -1, 79, -0.000994838, 0.0257611, 1.98887, -0.00956924, -0.0423647, 0.0929092, 0.10256, 0.783, 2008, 2020, 2568
6352, 7074.19, -1, 79, 0.00179769, 0.019984, 1.98957, -0.00610166, -0.0494656, 0.167132, 0.174405, 0.789, 2100, 2068, 2644
6353, 7101.44, -1, 79, 0.00289725, 0.0176802, 1.98945, -0.00201768, -0.0476424, 0.204743, 0.210223, 0.792, 1976, 2048, 2660
6354, 7131.56, -1, 79, 0.00359538, 0.0151669, 1.98981, -0.00854107, -0.0377597, 0.260461, 0.263323, 0.799, 2036, 2072, 2672
6355, 7168.63, -1, 79, 0.00350811, 0.013823, 1.9899, -0.00112074, -0.0332958, 0.310971, 0.31275, 0.807, 1984, 2032, 2640
6356, 7197.33, -1, 79, 0.00268781, 0.0118159, 1.98994, -0.00543132, -0.0358804, 0.361528, 0.363344, 0.818, 2024, 1988, 2568
6357, 7228.18, -1, 79, 0.00223402, 0.0101404, 1.99001, -0.0042895, -0.0254473, 0.411843, 0.412651, 0.829, 2004, 2008, 2596
6358, 7258.44, -1, 79, 0.00202458, 0.00909317, 1.98975, -0.00527305, -0.0178503, 0.44797, 0.448356, 0.84, 2012, 2032, 2632
6359, 7285.77, -1, 79, 0.0016057, 0.00877901, 1.98968, -0.0054766, -0.0193995, 0.480822, 0.481244, 0.851, 2076, 2052, 2636
6360, 7315.76, -1, 79, 0.00158825, 0.00858702, 1.98971, -0.00301938, -0.0170075, 0.527115, 0.527398, 0.868, 2076, 2056, 2648
6361, 7346.88, -1, 79, 0.00167552, 0.00816814, 1.98931, -0.00368504, -0.00555474, 0.566063, 0.566102, 0.885, 2104, 2056, 2640
6362, 7376.95, -1, 79, 0.00162316, 0.00809833, 1.98919, -0.000773429, -0.0152687, 0.589982, 0.59018, 0.896, 2032, 2032, 2596
6363, 7410.33, -1, 79, 0.00153589, 0.0074002, 1.98905, -0.00122529, -0.00264295, 0.621053, 0.62106, 0.914, 2088, 2048, 2612
6364, 7442.88, -1, 79, 0.000698132, 0.00708604, 1.98796, 0.00706686, 0.0150512, 0.663198, 0.663406, 0.943, 2108, 2028, 2596
6365, 7474.35, -1, 79, 1.74533e-05, 0.00778417, 1.9876, 0.0145341, 0.0319181, 0.685385, 0.686282, 0.96, 1964, 2032, 2548
6366, 7501.2, -1, 79, -0.000331613, 0.0092677, 1.98683, 0.0258894, 0.00787121, 0.705696, 0.706214, 0.98, 2004, 2052, 2556
6367, 7536.92, -1, 79, -0.000122173, 0.0113097, 1.98636, 0.0221373, -0.00223826, 0.732481, 0.732819, 1.006, 1976, 2048, 2540
6368, 7560.97, -1, 79, 5.23599e-05, 0.0120951, 1.98603, 0.029065, 0.00874762, 0.741952, 0.742572, 1.017, 1988, 2068, 2548
6369, 7592.05, -1, 79, -8.72665e-05, 0.0134216, 1.98515, 0.0397436, 0.0129693, 0.760494, 0.761642, 1.043, 2004, 2036, 2528
6370, 7625.65, -1, 79, -0.00172788, 0.0132121, 1.9847, 0.0170833, 0.00176211, 0.776239, 0.776429, 1.069, 2028, 1996, 2512
6371, 7653.09, -1, 79, -0.0034383, 0.0129329, 1.98395, 0.0270097, 0.00510849, 0.786567, 0.787048, 1.092, 2056, 2056, 2520
6372, 7684.29, -1, 79, -0.00450295, 0.012898, 1.98364, 0.0440085, 0.00761509, 0.795101, 0.796354, 1.116, 2088, 2084, 2568
6373, 7713.35, -1, 79, -0.00481711, 0.0127409, 1.98317, 0.0239611, 0.0159558, 0.805667, 0.806182, 1.14, 2028, 2052, 2564
6374, 7745.03, -1, 79, -0.00488692, 0.0126536, 1.98303, 0.00673202, 0.00408255, 0.812924, 0.812962, 1.16, 2048, 2016, 2512
6375, 7774.83, -1, 79, -0.00539307, 0.0117635, 1.98243, 0.020581, 0.0109683, 0.817929, 0.818261, 1.191, 1972, 2028, 2544
6376, 7805.41, -1, 79, -0.00612611, 0.0115366, 1.98173, 0.035636, 0.0233887, 0.811685, 0.812803, 1.214, 1964, 2016, 2560
6377, 7836.74, -1, 79, -0.00703368, 0.0112225, 1.98166, 0.0408083, 0.00184994, 0.808552, 0.809583, 1.24, 1932, 1996, 2532
6378, 7866.91, -1, 79, -0.0074002, 0.0111003, 1.98111, 0.0394824, 0.012981, 0.813952, 0.815013, 1.256, 2020, 2008, 2492
6379, 7901.84, -1, 79, -0.00794125, 0.0110479, 1.98077, 0.0415666, 0.00397777, 0.814225, 0.815295, 1.291, 1940, 2004, 2544
6380, 7928, -1, 79, -0.00811578, 0.0107512, 1.98056, 0.0240457, 0.033125, 0.811477, 0.812509, 1.306, 2000, 1972, 2500
6381, 7958.46, -1, 79, -0.00853466, 0.0101927, 1.98016, 0.00584018, -0.00282013, 0.820636, 0.820662, 1.331, 1948, 2004, 2528
6382, 7996.88, -1, 79, -0.00881391, 0.0095295, 1.98023, 0.0392549, -0.000726193, 0.825979, 0.826911, 1.356, 2004, 2076, 2544
6383, 8035.69, -1, 79, -0.00855211, 0.00879646, 1.97997, 0.0307364, 0.0214814, 0.830638, 0.831484, 1.397, 2012, 2060, 2516
6384, 8074.43, -1, 79, -0.00815069, 0.00860447, 1.97994, 0.000125629, 0.001351, 0.832842, 0.832843, 1.426, 2016, 2036, 2488
6385, 8112.47, -1, 79, -0.00863938, 0.0084823, 1.97981, 0.0296333, 0.0327676, 0.836299, 0.837465, 1.456, 2036, 2024, 2484
6386, 8154.26, -1, 79, -0.0103323, 0.00781908, 1.9796, 0.00736239, 0.00549101, 0.828312, 0.828363, 1.496, 2056, 2024, 2476
6387, 8195.45, -1, 79, -0.011013, 0.00759218, 1.97964, 0.00930465, 0.00847806, 0.828474, 0.82857, 1.517, 2016, 2044, 2568
6388, 8240.65, -1, 79, -0.0113621, 0.00802851, 1.97981, -0.0531798, 0.0373234, 0.827599, 0.830145, 1.567, 2080, 2036, 2508
6389, 8292.79, -1, 79, -0.0107338, 0.00781908, 1.98004, -0.0969811, 0.0119702, 0.826008, 0.831768, 1.604, 1984, 1996, 2472
6390, 8336.38, -1, 79, -0.0102102, 0.00699877, 1.98046, 0.0119944, -0.0241805, 0.805048, 0.8055, 1.634, 2076, 2040, 2540
6391, 8382.24, -1, 79, -0.00925025, 0.00572468, 1.98095, -0.0125096, -0.0555253, 0.7901, 0.792148, 1.671, 2044, 2020, 2536
6392, 8425.37, -1, 79, -0.00839503, 0.00539307, 1.98139, -0.0103417, -0.0655865, 0.783203, 0.786012, 1.697, 2072, 2040, 2568
6393, 8470.79, -1, 79, -0.00698132, 0.00509636, 1.98219, -0.0074532, -0.0596856, 0.780874, 0.783187, 1.739, 2116, 2076, 2548
6394, 8513.26, -1, 79, -0.00656244, 0.00446804, 1.98252, 0.0335532, -0.0454444, 0.7746, 0.776657, 1.772, 2056, 2008, 2572
6395, 8553.01, -1, 79, -0.00610865, 0.00397935, 1.98294, 0.035076, -0.0419123, 0.776909, 0.778829, 1.799, 2096, 2000, 2560
6396, 8602.62, -1, 79, -0.00563741, 0.00366519, 1.98332, 0.0370591, -0.0369451, 0.780032, 0.781785, 1.842, 2060, 2040, 2460
6397, 8619.24, -1, 79, -0.00551524, 0.00357792, 1.98343, 0.0374939, -0.0364458, 0.78019, 0.78194, 1.85, 2052, 2000, 2572
6398, 8659.21, -1, 79, -0.00486947, 0.00376991, 1.98378, 0.0399463, -0.0339352, 0.777679, 0.779444, 1.884, 2008, 2088, 2548
6399, 8697.85, -1, 79, -0.00472984, 0.00404916, 1.98416, 0.040727, -0.0321957, 0.775459, 0.777195, 1.907, 2040, 2072, 2488
6400, 8741.6, -1, 79, -0.0045204, 0.003735, 1.9847, 0.042019, -0.0295892, 0.771622, 0.773332, 1.94, 2060, 1968, 2504
6401, 8779.89, -1, 79, -0.00403171, 0.00342085, 1.98538, 0.0573958, 0.0155334, 0.767983, 0.770281, 1.974, 2060, 2052, 2560
6402, 8818.13, -1, 79, -0.00340339, 0.00329867, 1.98566, 0.0508737, -0.0098391, 0.764053, 0.765808, 1.995, 2020, 2100, 2532
6403, 8856.38, -1, 79, -0.00296706, 0.00270526, 1.98613, 0.0515333, -0.00804976, 0.761137, 0.762922, 2.028, 2012, 2000, 2508
6404, 8894.63, -1, 79, -0.00232129, 0.00247837, 1.98653, 0.0623889, 0.00585447, 0.756424, 0.759015, 2.049, 2088, 1980, 2524
6405, 8933.11, -1, 79, -0.0018326, 0.00181514, 1.98648, 0.0556153, -0.00080299, 0.71902, 0.721168, 2.074, 2060, 1992, 2496
6406, 8971.66, -1, 79, -0.00143117, -0.000837758, 1.98695, 0.0344417, -0.0179529, 0.647304, 0.648469, 2.1, 1956, 2064, 2448
6407, 9015.47, -1, 79, -0.00188496, -0.00350811, 1.9869, 0.0318113, -0.0181459, 0.568655, 0.569833, 2.125, 2036, 2040, 2416
6408, 9060.52, -1, 79, -0.00326377, -0.00441568, 1.98749, 0.0305159, -0.0168548, 0.468438, 0.469733, 2.151, 1972, 2032, 2424
6409, 9105.59, -1, 79, -0.00287979, -0.00441568, 1.98798, 0.0298689, -0.015529, 0.364062, 0.365615, 2.173, 1988, 2028, 2436
6410, 9119.69, -1, 79, -0.00275762, -0.0045204, 1.9881, 0.0297706, -0.0156347, 0.347181, 0.348806, 2.177, 2112, 2028, 2428
6411, 9151.92, -1, 79, -0.00230383, -0.0047822, 1.98826, 0.029347, -0.0157322, 0.298, 0.299854, 2.187, 1960, 2024, 2432
6412, 9180.02, -1, 79, -0.00188496, -0.00445059, 1.98877, 0.0290287, -0.0157635, 0.259993, 0.262083, 2.194, 2096, 2032, 2424
6413, 9214.32, -1, 79, -0.00127409, -0.00411898, 1.98922, 0.0287184, -0.0160937, 0.218889, 0.221351, 2.202, 1952, 2016, 2444
6414, 9240.48, -1, 79, -0.000925025, -0.00380482, 1.98948, 0.0280756, -0.0164141, 0.191708, 0.194447, 2.206, 1956, 2020, 2440
6415, 9270.96, -1, 79, -0.000349066, -0.00406662, 1.99025, 0.0261159, -0.0174968, 0.132736, 0.136408, 2.216, 2020, 2032, 2496
6416, 9301.89, -1, 79, -0.000191986, -0.00443314, 1.99053, 0.062987, 0.00390557, 0.102562, 0.120423, 2.221, 2116, 2040, 2456
6417, 9337.18, -1, 79, 0.000593412, -0.00575959, 1.99098, 0.0615465, 0.0021089, 0.0660507, 0.0903057, 2.223, 2096, 2040, 2448
6418, 9366.97, -1, 79, 0.00176278, -0.00778417, 1.9913, 0.0600215, 0.000215214, 0.0439102, 0.0743688, 2.227, 1960, 2012, 2472
6419, 9396.77, -1, 79, 0.00296706, -0.00888373, 1.9914, 0.0588904, -0.00103839, 0.0265715, 0.0646158, 2.228, 1976, 2020, 2464
6420, 9428.11, -1, 79, 0.00464258, -0.010664, 1.99226, 0.0564336, -0.00317065, 0.00268513, 0.0565863, 2.229, 2024, 2024, 2524
6421, 9457.67, -1, 79, 0.00617847, -0.0119904, 1.99212, 0.0532642, -0.00519547, -0.0217891, 0.0577826, 2.227, 2112, 2060, 2480
6422, 9488.24, -1, 79, 0.00748746, -0.0127409, 1.99289, 0.0486098, -0.00842995, -0.0469006, 0.0680709, 2.225, 2060, 2048, 2536
6423, 9519.55, -1, 79, 0.00809833, -0.013631, 1.99311, 0.0442357, -0.0125494, -0.0696547, 0.083463, 2.222, 2064, 2064, 2528
6424, 9547.01, -1, 79, 0.00804597, -0.013631, 1.99325, 0.0421124, -0.0143228, -0.0759288, 0.0879988, 2.221, 2088, 2080, 2500
6425, 9582.36, -1, 79, 0.00836013, -0.00708604, 1.99416, 0.0146248, -0.0229918, -0.100306, 0.103941, 2.215, 2020, 2052, 2544
6426, 9609.08, -1, 79, 0.00815069, -0.00275762, 1.99441, 0.0154723, -0.0261443, -0.116099, 0.120008, 2.21, 2068, 2088, 2508
6427, 9646.93, -1, 79, 0.0069115, -0.00139626, 1.99502, 0.0157377, -0.029035, -0.120788, 0.125222, 2.207, 2056, 1972, 2504
6428, 9671.18, -1, 79, 0.00542797, -0.00102974, 1.99526, 0.0156416, -0.0308249, -0.120934, 0.125777, 2.204, 2028, 2108, 2540
6429, 9700.3, -1, 79, 0.00361283, -0.00102974, 1.99542, 0.0158354, -0.0324474, -0.1237, 0.128861, 2.201, 2052, 1964, 2532
6430, 9736.78, -1, 79, 0.0010821, -0.00137881, 1.99568, 0.0158854, -0.0331499, -0.124741, 0.130044, 2.197, 2068, 2028, 2512
6431, 9764.56, -1, 79, -0.000261799, -0.00153589, 1.99575, 0.0162774, -0.0340248, -0.0973734, 0.104423, 2.198, 2068, 2024, 2520
6432, 9792.88, -1, 79, -0.000785398, -0.00167552, 1.99619, 0.016216, -0.0337159, -0.102942, 0.10953, 2.195, 2092, 1972, 2524
6433, 9826.96, -1, 79, -0.000994838, -0.00171042, 1.99641, 0.0259151, -0.0599739, -0.115555, 0.132745, 2.189, 2104, 1980, 2520
6434, 9858.4, -1, 79, -0.00193732, -0.0021293, 1.99646, 0.0267447, -0.0593923, -0.124835, 0.140806, 2.184, 1996, 2052, 2536
6435, 9887.92, -1, 79, -0.00345575, -0.00274017, 1.9966, 0.0264082, -0.0579556, -0.108603, 0.1259, 2.184, 2120, 2008, 2544
6436, 9918.16, -1, 79, -0.00652753, -0.00301942, 1.99648, 0.0263835, -0.0558194, -0.110626, 0.126689, 2.18, 2064, 1996, 2520
6437, 9945.91, -1, 79, -0.00977384, -0.00446804, 1.99564, 0.0262055, -0.0525117, -0.127791, 0.140623, 2.173, 2084, 1996, 2520
6438, 9982.86, -1, 79, -0.011589, -0.00525344, 1.99673, 0.025082, -0.0502026, -0.13473, 0.14595, 2.168, 2040, 2056, 2560
6439, 10008.1, -1, 79, -0.0138754, -0.00694641, 1.9961, 0.0229649, -0.0455457, -0.130075, 0.139719, 2.162, 1960, 2028, 2532
6440, 10043.6, -1, 79, -0.0141372, -0.00731293, 1.99666, 0.0212841, -0.0410826, -0.113068, 0.122168, 2.161, 2000, 2052, 2560
6441, 10069.4, -1, 79, -0.0125838, -0.00513127, 1.99683, 0.019666, -0.0381088, -0.111571, 0.119528, 2.159, 1964, 2040, 2540
6442, 10099.2, -1, 79, -0.00818559, 0.00329867, 1.99648, 0.0194949, -0.0348835, -0.100209, 0.107883, 2.156, 1992, 2032, 2536
6443, 10131.1, -1, 79, -0.0042586, 0.0161443, 1.99676, 0.0235681, -0.0332036, -0.0967038, 0.104926, 2.153, 2024, 2028, 2532
6444, 10161.2, -1, 79, -0.00207694, 0.0286059, 1.99646, 0.0310848, -0.0323444, -0.079539, 0.0913174, 2.153, 2060, 2028, 2556
6445, 10194.6, -1, 79, -0.00129154, 0.0424813, 1.99646, 0.0441423, -0.0318847, -0.0798505, 0.0966503, 2.15, 2084, 2036, 2552
6446, 10222, -1, 79, -0.00111701, 0.0500211, 1.99662, 0.0530824, -0.0313735, -0.0804562, 0.101367, 2.148, 2076, 2028, 2548
6447, 10253.7, -1, 79, -0.000698132, 0.062029, 1.99624, 0.072617, -0.0303518, -0.0757294, 0.109222, 2.146, 2084, 2024, 2548
6448, 10283.5, -1, 79, -0.000471239, 0.0710524, 1.99641, 0.0922631, -0.0300359, -0.0754114, 0.122888, 2.144, 2084, 2040, 2540
6449, 10315.5, -1, 79, -0.000541052, 0.0800059, 1.99636, 0.117956, -0.0293443, -0.0746232, 0.14263, 2.142, 2096, 2040, 2540
6450, 10350.2, -1, 79, -0.00144862, 0.0859575, 1.99629, 0.141633, -0.0284141, -0.0732283, 0.161956, 2.139, 1964, 2032, 2536
6451, 10377.3, -1, 79, -0.00167552, 0.0886976, 1.99622, 0.153883, -0.0278162, -0.0702406, 0.171428, 2.139, 1944, 2032, 2536
6452, 10410.4, -1, 79, -0.00268781, 0.0947888, 1.99582, 0.188553, -0.0267852, -0.070163, 0.20296, 2.136, 2056, 2032, 2540
6453, 10438.2, -1, 79, -0.0039619, 0.0983144, 1.99578, 0.21607, -0.0258509, -0.0688758, 0.228251, 2.134, 1928, 2024, 2532
6454, 10471.6, -1, 79, -0.00429351, 0.101962, 1.99564, 0.247214, -0.0243235, -0.0681856, 0.257596, 2.131, 1928, 2016, 2540
6455, 10500.3, -1, 79, -0.00401426, 0.10376, 1.99552, 0.280272, -0.0233205, -0.0578139, 0.287121, 2.131, 1936, 2008, 2536
6456, 10530.2, -1, 79, -0.00382227, 0.104441, 1.99542, 0.30561, -0.0221967, 0.00574241, 0.306468, 2.141, 2036, 2008, 2524
6457, 10560.6, -1, 79, -0.00397935, 0.105016, 1.99516, 0.332476, -0.0205569, -0.00418669, 0.333137, 2.141, 1920, 2016, 2540
6458, 10590, -1, 79, -0.00404916, 0.105523, 1.99477, 0.359695, -0.0190738, -0.00704498, 0.360269, 2.142, 2056, 2060, 2556
6459, 10621.1, -1, 79, -0.00420624, 0.106238, 1.99448, 0.393223, -0.0172539, 0.0106763, 0.393746, 2.147, 2044, 2048, 2560
6460, 10651.3, -1, 79, -0.00434587, 0.106954, 1.99434, 0.419648, -0.0161064, -0.028205, 0.420903, 2.142, 2036, 2044, 2556
6461, 10682.3, -1, 79, -0.0044855, 0.107041, 1.99446, 0.43241, -0.0155939, -0.0315941, 0.433844, 2.142, 2096, 2052, 2536
6462, 10712.9, -1, 79, -0.005044, 0.106029, 1.99441, 0.460362, -0.0142087, -0.05824, 0.464249, 2.136, 2076, 2048, 2536
6463, 10743.5, -1, 79, -0.00549779, 0.104493, 1.99409, 0.488307, -0.0117696, -0.0739276, 0.494011, 2.131, 2056, 2044, 2548
6464, 10779.8, -1, 79, -0.0066148, 0.102521, 1.99371, 0.524914, -0.00838135, -0.0780679, 0.530753, 2.126, 2012, 2032, 2496
6465, 10806.6, -1, 79, -0.0074002, 0.101857, 1.99357, 0.540842, -0.00660478, -0.0720777, 0.545663, 2.125, 1988, 2032, 2520
6466, 10835.9, -1, 79, -0.00945968, 0.101351, 1.99353, 0.567403, -0.00303594, -0.0691971, 0.571615, 2.123, 1964, 2036, 2536
6467, 10866.2, -1, 79, -0.011205, 0.101351, 1.99317, 0.588662, 0.000644219, -0.0794198, 0.593996, 2.118, 2020, 2052, 2520
6468, 10896.4, -1, 79, -0.0119555, 0.101124, 1.99327, 0.603693, 0.00308251, -0.0744126, 0.60827, 2.117, 1944, 2056, 2544
6469, 10926.6, -1, 79, -0.0131249, 0.100601, 1.99317, 0.633581, 0.00866096, -0.0198752, 0.633952, 2.123, 1932, 2060, 2556
6470, 10956.8, -1, 79, -0.0137183, 0.100653, 1.99303, 0.653146, 0.0125559, -0.0238099, 0.6537, 2.122, 2040, 2048, 2524
6471, 10987.5, -1, 79, -0.0144688, 0.100583, 1.99271, 0.677857, 0.0177893, -0.015368, 0.678265, 2.124, 2016, 2032, 2528
6472, 11018, -1, 79, -0.0150098, 0.100705, 1.99259, 0.688594, 0.0205398, -0.0473446, 0.690525, 2.118, 1952, 2052, 2564
6473, 11049.1, -1, 79, -0.0155334, 0.100653, 1.99242, 0.70889, 0.0253689, -0.0467237, 0.710881, 2.117, 2044, 2008, 2528
6474, 11079, -1, 79, -0.0158127, 0.0999201, 1.99212, 0.728528, 0.030175, -0.041026, 0.730306, 2.117, 2076, 2024, 2484
6475, 11118, -1, 79, -0.0164759, 0.0979304, 1.99165, 0.75848, 0.0374296, -0.0413782, 0.760529, 2.114, 2064, 2064, 2492
6476, 11157, -1, 79, -0.0165806, 0.0965865, 1.99147, 0.772716, 0.0413487, -0.0408376, 0.774898, 2.113, 1988, 1992, 2572
6477, 11195, -1, 79, -0.0154636, 0.0942478, 1.99102, 0.800081, 0.0487519, -0.0410711, 0.802616, 2.111, 2008, 1996, 2584
6478, 11234, -1, 79, -0.0135612, 0.092101, 1.991, 0.818544, 0.0528517, -0.0397594, 0.821211, 2.11, 2020, 2012, 2588
6479, 11272.2, -1, 79, -0.0114668, 0.089675, 1.99046, 0.831772, 0.0734044, -0.0389435, 0.835913, 2.108, 2040, 2036, 2572
6480, 11312.3, -1, 79, -0.00872665, 0.0866381, 1.99022, 0.894343, 0.0912766, -0.0397768, 0.899869, 2.105, 2068, 2068, 2552
6481, 11351.3, -1, 79, -0.00760964, 0.0852768, 1.98971, 0.934736, 0.0853558, -0.0385436, 0.939416, 2.103, 1984, 2068, 2552
6482, 11390.2, -1, 79, -0.00598648, 0.0832348, 1.98945, 0.972691, 0.0919799, -0.0356633, 0.977681, 2.102, 2016, 2016, 2576
6483, 11428.2, -1, 79, -0.00439823, 0.0823621, 1.98898, 1.00546, 0.108761, -0.0369197, 1.012, 2.099, 1996, 2028, 2600
6484, 11477.9, -1, 79, -0.00261799, 0.0811927, 1.98894, 1.04444, 0.0955564, -0.0331827, 1.04932, 2.097, 2048, 2048, 2588
6485, 11516.8, -1, 79, -0.00230383, 0.0802502, 1.98872, 1.07068, 0.103642, -0.0208685, 1.07589, 2.098, 2080, 2064, 2588
6486, 11561.7, -1, 79, -0.000785398, 0.0789238, 1.98805, 1.09244, 0.102231, -0.0207519, 1.09741, 2.097, 1924, 2012, 2532
6487, 11603.1, -1, 79, 5.23599e-05, 0.0789761, 1.98762, 1.13281, 0.120743, -0.0206301, 1.13942, 2.095, 1920, 2040, 2564
6488, 11651.5, -1, 79, 0.000698132, 0.0792729, 1.98683, 1.14634, 0.122481, -0.0221987, 1.15308, 2.093, 1968, 2044, 2592
6489, 11700.4, -1, 79, 0.00235619, 0.0798488, 1.98659, 1.15715, 0.133305, -0.0216895, 1.165, 2.092, 2000, 2004, 2516
6490, 11750.9, -1, 79, 0.00441568, 0.0792554, 1.98599, 1.22471, 0.165543, -0.0160698, 1.23595, 2.091, 2084, 2020, 2516
6491, 11791, -1, 79, 0.00486947, 0.078278, 1.98591, 1.26069, 0.173362, -0.00970819, 1.27259, 2.091, 2052, 2040, 2512
6492, 11829.8, -1, 79, 0.00495674, 0.0765327, 1.98529, 1.29792, 0.186856, -0.0145292, 1.31138, 2.089, 1964, 2044, 2564
6493, 11867.5, -1, 79, 0.0053058, 0.0755553, 1.985, 1.29982, 0.181908, -0.00689848, 1.31251, 2.09, 1996, 2012, 2560
6494, 11910.1, -1, 79, 0.00644026, 0.07566, 1.98426, 1.3005, 0.17208, -0.00506653, 1.31184, 2.09, 2000, 2012, 2564
6495, 11948.5, -1, 79, 0.00785398, 0.0762185, 1.98402, 1.20796, 0.159148, -0.0112079, 1.21845, 2.088, 2052, 1984, 2524
6496, 11992.8, -1, 79, 0.00856957, 0.0778417, 1.98353, 1.20996, 0.149556, -0.00947559, 1.21921, 2.087, 2012, 2024, 2536
6497, 12042.2, -1, 79, 0.00816814, 0.0757647, 1.98283, 1.21262, 0.141964, -0.00515526, 1.22092, 2.087, 1992, 2000, 2540
6498, 12080.5, -1, 79, 0.0119381, 0.0497419, 1.98233, 1.20811, 0.13435, -0.00396812, 1.21557, 2.086, 2028, 2016, 2520
6499, 12124.7, -1, 79, 0.0168075, 0.0102974, 1.98173, 1.18192, 0.122134, 0.00071705, 1.18821, 2.086, 1988, 1964, 2536
6500, 12174.3, -1, 79, 0.0180467, -0.015708, 1.98044, 1.15322, 0.114334, 0.0126598, 1.15894, 2.088, 2008, 1972, 2576
6501, 12212.5, -1, 79, 0.0195302, -0.038502, 1.98077, 1.11326, 0.10272, 0.0140457, 1.11807, 2.089, 1976, 2020, 2556
6502, 12256.7, -1, 79, 0.0211185, -0.0629191, 1.9802, 1.05115, 0.0879749, 0.0274645, 1.05518, 2.093, 2044, 2036, 2568
6503, 12303.2, -1, 79, 0.0206822, -0.0853815, 1.98074, 0.978258, 0.0711395, 0.0456968, 0.981905, 2.099, 2068, 2044, 2512
6504, 12342.7, -1, 79, 0.019984, -0.103655, 1.98079, 0.913982, 0.0603823, 0.0468014, 0.917169, 2.102, 2012, 2032, 2564
6505, 12381.7, -1, 79, 0.0189543, -0.118909, 1.98102, 0.852728, 0.0507339, 0.0500984, 0.855703, 2.106, 2012, 2032, 2580
6506, 12421.1, -1, 79, 0.01775, -0.134705, 1.98158, 0.779262, 0.0414573, 0.0477312, 0.781822, 2.109, 2068, 2012, 2528
6507, 12459.3, -1, 79, 0.0171042, -0.144845, 1.98212, 0.721058, 0.0341098, 0.0403637, 0.722992, 2.11, 2016, 2040, 2540
6508, 12498.5, -1, 79, 0.0174533, -0.15708, 1.98282, 0.619002, 0.022448, 0.0417625, 0.620815, 2.114, 1972, 2012, 2516
6509, 12537.7, -1, 79, 0.0177675, -0.163939, 1.98353, 0.643215, 0.00753164, 0.0385206, 0.644412, 2.117, 2016, 2040, 2568
6510, 12576.1, -1, 79, 0.0175406, -0.167639, 1.98379, 0.580527, 0.00167481, 0.0300172, 0.581304, 2.118, 1936, 2048, 2520
6511, 12615.7, -1, 79, 0.0176976, -0.169995, 1.98432, 0.494867, -0.00697248, 0.0255867, 0.495577, 2.12, 2004, 2024, 2520
6512, 12654.1, -1, 79, 0.0174882, -0.167447, 1.98486, 0.420042, -0.0150907, 0.0220114, 0.420889, 2.122, 1996, 2016, 2492
6513, 12692.5, -1, 79, 0.0134041, -0.149487, 1.98589, 0.332122, -0.023275, 0.00998501, 0.333086, 2.123, 2024, 2016, 2556
6514, 12731.5, -1, 79, 0.0082205, -0.124372, 1.98667, 0.256704, -0.029028, 0.00633956, 0.258418, 2.124, 1948, 2040, 2540
6515, 12770.7, -1, 79, 0.00560251, -0.106186, 1.98699, 0.206351, -0.0321591, -0.00137377, 0.208846, 2.125, 1956, 2020, 2560
6516, 12810, -1, 79, 0.00387463, -0.0894132, 1.98734, 0.162187, -0.0339362, -0.00785833, 0.165886, 2.124, 2000, 2004, 2560
6517, 12849.1, -1, 79, 0.00197222, -0.0766898, 1.98756, 0.130103, -0.0352983, -0.019519, 0.136212, 2.123, 2032, 2056, 2540
6518, 12887.3, -1, 79, -0.00280998, -0.0599521, 1.98756, 0.0845384, -0.0346918, -0.022182, 0.0940335, 2.122, 1948, 2056, 2528
6519, 12926.2, -1, 79, -0.00523599, -0.0508414, 1.98756, 0.0610611, -0.0333353, -0.0158866, 0.0713588, 2.123, 2012, 2052, 2560
6520, 12963.1, -1, 79, -0.00907571, -0.0357094, 1.98744, 0.0297355, -0.0298485, -0.0294166, 0.0513855, 2.12, 2076, 2064, 2572
6521, 13001.5, -1, 79, -0.0101578, -0.0267384, 1.98728, 0.0141466, -0.0274873, -0.0395975, 0.0502358, 2.118, 2072, 2068, 2508
6522, 13039.7, -1, 79, -0.0109258, -0.0163537, 1.98723, -0.00175305, -0.0240631, -0.0339354, 0.041638, 2.117, 2048, 2040, 2548
6523, 13084.5, -1, 79, -0.0113272, -0.0055676, 1.98718, -0.0158532, -0.0194503, -0.0342955, 0.0424949, 2.116, 2020, 2056, 2528
6524, 13125.3, -1, 79, -0.0112923, 0.000628319, 1.98734, -0.0220207, -0.015261, -0.00668813, 0.0276141, 2.121, 2004, 2036, 2520
6525, 13171.5, -1, 79, -0.0111527, 0.00760964, 1.98723, -0.0261827, -0.0104739, -0.00498185, 0.0286366, 2.122, 2012, 2068, 2560
6526, 13214.5, -1, 79, -0.0103498, 0.0148178, 1.98753, -0.0824399, -0.0297201, -0.00618774, 0.0878516, 2.122, 2080, 2056, 2548
6527, 13261.8, -1, 79, -0.0105418, 0.0219737, 1.9876, -0.0810826, -0.0272453, -0.0386779, 0.0938759, 2.117, 1976, 2016, 2536
6528, 13303.6, -1, 79, -0.0114145, 0.0291994, 1.98742, -0.0754829, -0.0233528, -0.0471731, 0.0920235, 2.114, 2052, 2060, 2536
6529, 13342.3, -1, 79, -0.0126362, 0.0320966, 1.98742, -0.0700506, -0.0202295, -0.0457299, 0.0860671, 2.112, 2008, 2060, 2548
6530, 13380.1, -1, 79, -0.0133692, 0.0350288, 1.98783, -0.0600525, -0.0143165, -0.0415849, 0.074435, 2.111, 2096, 1992, 2536
6531, 13419.1, -1, 79, -0.0131074, 0.036041, 1.98802, -0.0355046, -0.0388118, -0.0399568, 0.0660566, 2.11, 2108, 1988, 2536
6532, 13457.3, -1, 79, -0.0133518, 0.0353778, 1.98807, 0.0725268, -0.0275107, -0.0398267, 0.087196, 2.108, 2012, 2068, 2548
6533, 13468.6, -1, 79, -0.0135438, 0.0344179, 1.98819, 0.0997639, -0.0199123, -0.024864, 0.104726, 2.11, 2084, 1976, 2532
6534, 13494.8, -1, 79, -0.0141023, 0.0315032, 1.98824, 0.103423, -0.0174422, -0.0250924, 0.107843, 2.109, 2108, 2004, 2548
6535, 13526.6, -1, 79, -0.0140324, 0.0232129, 1.98861, 0.107919, -0.0125519, -0.0114837, 0.109252, 2.112, 2096, 2020, 2552
6536, 13557, -1, 79, -0.0128456, 0.0139277, 1.98849, 0.133488, 0.000222186, -0.000730559, 0.133491, 2.114, 2064, 2024, 2540
6537, 13586.7, -1, 79, -0.0115541, 0.00720821, 1.98845, 0.134749, 0.00269716, 0.0164903, 0.135782, 2.118, 2060, 2012, 2536
6538, 13617.5, -1, 79, -0.0107163, 0.00219911, 1.98849, 0.13129, 0.00436418, 0.0104451, 0.131777, 2.118, 2012, 2040, 2520
6539, 13650.2, -1, 79, -0.00912807, -0.00392699, 1.9884, 0.186135, 0.0101053, 0.00879152, 0.186617, 2.12, 2044, 2028, 2504
6540, 13683.8, -1, 79, -0.00808087, -0.00794125, 1.98859, 0.186625, 0.0165754, 0.0168915, 0.188119, 2.124, 2016, 1992, 2508
6541, 13711.5, -1, 79, -0.00750492, -0.0119206, 1.98842, 0.180381, 0.0173971, -0.0079892, 0.181394, 2.121, 2060, 2060, 2524
6542, 13739.5, -1, 79, -0.00677188, -0.0164061, 1.98851, 0.171695, 0.0112895, -0.0130882, 0.172562, 2.12, 2040, 1976, 2512
6543, 13776.6, -1, 79, -0.00602139, -0.0203505, 1.98851, 0.181391, 0.0304275, -0.00378961, 0.183965, 2.123, 2036, 1960, 2520
6544, 13801.3, -1, 79, -0.00567232, -0.0213977, 1.98842, 0.165139, 0.0174374, -0.00464092, 0.166122, 2.124, 2028, 1952, 2524
6545, 13832.3, -1, 79, -0.00459022, -0.0228638, 1.98828, 0.25794, 0.0224996, -0.0192355, 0.259633, 2.122, 2024, 2008, 2524
6546, 13869.7, -1, 79, -0.00333358, -0.0263719, 1.98826, 0.233303, 0.0253539, -0.0425117, 0.238496, 2.121, 2072, 2020, 2532
6547, 13900.4, -1, 79, -0.00275762, -0.0286583, 1.98831, 0.215261, 0.0334922, -0.0695531, 0.228685, 2.121, 2004, 2108, 2460
6548, 13928.1, -1, 79, -0.00226893, -0.0254818, 1.98828, 0.191063, 0.0410279, -0.0913165, 0.215701, 2.119, 2068, 1992, 2500
6549, 13955.9, -1, 79, -0.00205949, -0.0195477, 1.98863, 0.196567, 0.0282638, -0.0958044, 0.22049, 2.118, 1996, 2052, 2504
6550, 13991.8, -1, 79, -0.000314159, -0.0136834, 1.98861, 0.216658, 0.0615967, -0.097837, 0.245575, 2.116, 2000, 2032, 2532
6551, 14020.6, -1, 79, 0.00338594, -0.0140848, 1.98861, 0.20677, 0.0603996, -0.0950356, 0.235444, 2.114, 2004, 2028, 2552
6552, 14051.8, -1, 79, 0.00628319, -0.016057, 1.98863, 0.201264, 0.0587213, -0.0961913, 0.230669, 2.112, 1976, 2032, 2520
6553, 14080, -1, 79, 0.0105069, -0.0188321, 1.98828, 0.189719, 0.0541115, -0.0910218, 0.21727, 2.109, 1964, 2008, 2524
6554, 14110.4, -1, 79, 0.0123395, -0.0196873, 1.9884, 0.182973, 0.0515561, -0.0912697, 0.210873, 2.107, 1992, 2004, 2492
6555, 14140.5, -1, 79, 0.0146957, -0.0199666, 1.98826, 0.167409, 0.0435537, -0.0851979, 0.192825, 2.104, 2052, 2064, 2584
6556, 14170.2, -1, 79, 0.0154287, -0.0193033, 1.98823, 0.159537, 0.0385688, -0.0847934, 0.184742, 2.102, 1996, 1984, 2504
6557, 14200.5, -1, 79, 0.0158127, -0.0186401, 1.98837, 0.150711, 0.0325742, -0.0825656, 0.174906, 2.1, 2028, 2008, 2544
6558, 14230.6, -1, 79, 0.0153414, -0.0180642, 1.9883, 0.0641241, 0.0218817, -0.077716, 0.103104, 2.098, 2040, 2004, 2540
6559, 14268.8, -1, 79, 0.0137183, -0.0158127, 1.9883, 0.0192873, 0.00679398, -0.0719619, 0.0748109, 2.096, 2104, 2080, 2544
6560, 14299.2, -1, 79, 0.0117286, -0.0106814, 1.98842, 0.00782936, -0.00840651, -0.0710284, 0.0719514, 2.094, 2000, 2056, 2532
6561, 14325.9, -1, 79, 0.00949459, -0.00431096, 1.98835, 0.00449159, -0.01174, -0.0215151, 0.0249179, 2.102, 2108, 2032, 2544
6562, 14354.7, -1, 79, 0.00651008, 0.00328122, 1.98823, 0.00431182, -0.014157, -0.0450403, 0.0474093, 2.098, 2088, 2072, 2504
6563, 14391, -1, 79, 0.00312414, 0.0101578, 1.98798, -0.047969, -0.0352965, -0.0868364, 0.105297, 2.094, 2104, 2072, 2492
6564, 14417, -1, 79, 0.000837758, 0.01309, 1.98798, -0.0594634, -0.0505808, -0.134685, 0.155674, 2.09, 1948, 2012, 2472
6565, 14453.7, -1, 79, -0.000523599, 0.01494, 1.98776, -0.0597266, -0.0556877, -0.19501, 0.211417, 2.086, 1964, 2008, 2444
6566, 14479.7, -1, 79, -0.00109956, 0.0167726, 1.98767, -0.0737927, -0.0830827, -0.266606, 0.288837, 2.078, 2088, 2032, 2424
6567, 14509.5, -1, 79, -0.00111701, 0.0186052, 1.98774, -0.0686906, -0.0901974, -0.301538, 0.322147, 2.073, 2000, 2016, 2448
6568, 14539.3, -1, 79, -0.000872665, 0.0207869, 1.9879, -0.0227924, -0.0870651, -0.362257, 0.373269, 2.063, 2088, 2060, 2420
6569, 14573.6, -1, 79, -0.000418879, 0.0230034, 1.98809, -0.00674901, -0.0835451, -0.427002, 0.43515, 2.049, 2052, 2064, 2428
6570, 14605.7, -1, 79, -0.00020944, 0.0252026, 1.98796, -0.013944, -0.0857202, -0.479055, 0.486864, 2.035, 2020, 2008, 2464
6571, 14628.7, -1, 79, 0, 0.0268781, 1.98817, -0.00773415, -0.0903891, -0.473666, 0.482275, 2.031, 2016, 2060, 2444
6572, 14666, -1, 79, -6.98132e-05, 0.0287456, 1.98819, 0.00632104, -0.0831886, -0.533298, 0.539785, 2.013, 1996, 2036, 2468
6573, 14691.7, -1, 79, -0.000436332, 0.0298451, 1.98814, -0.0516898, -0.0949219, -0.568419, 0.578603, 2, 2052, 2076, 2428
6574, 14727.1, -1, 79, -0.000733038, 0.0314857, 1.98824, -0.0798606, -0.0912128, -0.612085, 0.623976, 1.979, 2080, 2056, 2436
6575, 14754.1, -1, 79, -0.000593412, 0.0318872, 1.98824, -0.12001, -0.131327, -0.644313, 0.668422, 1.962, 2000, 2048, 2480
6576, 14783, -1, 79, -0.000122173, 0.0322711, 1.98823, -0.129268, -0.0738761, -0.669232, 0.685595, 1.948, 2004, 2068, 2480
6577, 14813.3, -1, 79, 0.000593412, 0.0327773, 1.98845, -0.0490886, -0.0754973, -0.703658, 0.709397, 1.925, 1996, 2024, 2484
6578, 14864.3, -1, 79, 0.00202458, 0.0335278, 1.98872, -0.103061, -0.0762512, -0.746383, 0.757313, 1.893, 2076, 2072, 2444
6579, 14911.2, -1, 79, 0.00368264, 0.0334231, 1.98915, -0.110146, -0.038866, -0.785938, 0.794569, 1.855, 2004, 2068, 2516
6580, 14957.4, -1, 79, 0.00363028, 0.0327424, 1.98952, -0.0763564, -0.0793525, -0.81182, 0.819255, 1.819, 2088, 2016, 2476
6581, 15005.9, -1, 79, 0.00197222, 0.0318174, 1.9899, -0.0938095, -0.0900578, -0.840802, 0.850799, 1.774, 2084, 2012, 2484
6582, 15058.5, -1, 79, 0.00312414, 0.0312763, 1.9902, -0.0828109, -0.0901412, -0.860232, 0.868897, 1.727, 2072, 1996, 2504
6583, 15103.4, -1, 79, 0.00439823, 0.0302291, 1.99037, -0.0690613, -0.0885679, -0.860939, 0.868233, 1.695, 2016, 2000, 2536
6584, 15141.7, -1, 79, 0.00518363, 0.0286234, 1.98992, -0.0570269, -0.0875722, -0.873276, 0.879506, 1.664, 2024, 2000, 2540
6585, 15186.4, -1, 79, 0.00488692, 0.0261799, 1.99112, -0.0425993, -0.0870122, -0.87552, 0.880864, 1.626, 2068, 2072, 2496
6586, 15231.5, -1, 79, 0.00460767, 0.0247488, 1.99086, -0.0307895, -0.0865411, -0.884754, 0.889509, 1.589, 2076, 2020, 2500
6587, 15274, -1, 79, 0.00630064, 0.0219213, 1.99123, -0.0169776, -0.0839841, -0.893187, 0.897287, 1.547, 2008, 2056, 2560
6588, 15316.2, -1, 79, 0.00719076, 0.0193557, 1.99126, -0.00613165, -0.0838476, -0.888601, 0.892569, 1.507, 2056, 2008, 2544
6589, 15355.9, -1, 79, 0.00698132, 0.0180467, 1.99158, 0.00128543, -0.084516, -0.896624, 0.9006, 1.469, 2012, 2028, 2572
6590, 15394.6, -1, 79, 0.00673697, 0.0180118, 1.99175, 0.0064988, -0.0840745, -0.890202, 0.894187, 1.442, 2048, 2012, 2552
6591, 15437.6, -1, 79, 0.00555015, 0.0171042, 1.99182, 0.0156021, -0.0844557, -0.896431, 0.900536, 1.393, 2056, 2040, 2540
6592, 15476.8, -1, 79, 0.00282743, 0.0164061, 1.99172, 0.0226835, -0.0859783, -0.876074, 0.880575, 1.359, 2040, 2012, 2572
6593, 15523.8, -1, 79, -0.00164061, 0.0166504, 1.99167, 0.0298843, -0.0861172, -0.858418, 0.863244, 1.321, 2044, 2060, 2544
6594, 15576.8, -1, 79, -0.00233874, 0.0176976, 1.99191, 0.0333043, -0.0826291, -0.842763, 0.847459, 1.274, 2036, 2032, 2548
6595, 15623.5, -1, 79, -0.00132645, 0.0174358, 1.99184, 0.0369023, -0.080231, -0.831674, 0.83635, 1.241, 2036, 2000, 2572
6596, 15666.4, -1, 79, -0.00256563, 0.0165981, 1.99196, 0.0400627, -0.0816392, -0.818263, 0.823301, 1.204, 2052, 2060, 2548
6597, 15704.5, -1, 79, -0.00520108, 0.0168773, 1.99214, 0.038058, -0.0742101, -0.804649, 0.808959, 1.168, 2044, 2040, 2544
6598, 15743.1, -1, 79, -0.00706858, 0.0172962, 1.99222, 0.0265648, -0.0629604, -0.795797, 0.798725, 1.145, 2024, 1984, 2572
6599, 15781.9, -1, 79, -0.010088, 0.0188845, 1.99324, 0.00650584, -0.0564428, -0.773055, 0.77514, 1.114, 2044, 2052, 2532
6600, 15820.2, -1, 79, -0.0150273, 0.0200364, 1.99296, 0.0150453, -0.0513003, -0.701841, 0.703874, 1.087, 2068, 2072, 2584
6601, 15858.2, -1, 79, -0.0208043, 0.0198618, 1.99346, 0.0239716, -0.0434785, -0.613724, 0.615729, 1.062, 2024, 2000, 2672
6602, 15896.1, -1, 79, -0.0248709, 0.0188321, 1.99369, -0.00445829, -0.036095, -0.533188, 0.534427, 1.043, 2028, 2056, 2676
6603, 15939.1, -1, 79, -0.0281871, 0.0176453, 1.99386, -0.0684635, -0.0527816, -0.436859, 0.44533, 1.023, 2024, 2024, 2680
6604, 15985.6, -1, 79, -0.0301942, 0.0194081, 1.99404, -0.0732237, -0.0545506, -0.369821, 0.380926, 1.009, 2036, 2080, 2644
6605, 16032.5, -1, 79, -0.0313287, 0.0231082, 1.99362, -0.105585, -0.0546284, -0.280224, 0.304398, 0.994, 2048, 2084, 2592
6606, 16079.7, -1, 79, -0.0309447, 0.0277333, 1.99311, -0.134602, -0.0599585, -0.196279, 0.245435, 0.982, 2072, 1984, 2628
6607, 16126.8, -1, 79, -0.0301767, 0.0312414, 1.99264, -0.172973, -0.0635596, -0.135017, 0.228449, 0.976, 2100, 2048, 2592
6608, 16136.2, -1, 79, -0.0296008, 0.032306, 1.99243, -0.19562, -0.0504078, -0.123415, 0.236726, 0.974, 1980, 2044, 2568
6609, 16175.6, -1, 79, -0.0274366, 0.0360236, 1.99235, -0.197678, -0.0336807, -0.0836993, 0.217294, 0.971, 2016, 2056, 2544
6610, 16216.1, -1, 79, -0.0241728, 0.0431096, 1.99147, -0.166752, -0.0124631, -0.0451515, 0.173206, 0.969, 2112, 2036, 2616
6611, 16257, -1, 79, -0.0189892, 0.0481711, 1.99109, -0.170962, 0.0121126, 0.00256252, 0.17141, 0.974, 2088, 2024, 2544
6612, 16296.6, -1, 79, -0.0140499, 0.0502829, 1.99055, -0.147825, 0.0431042, 0.024402, 0.155903, 0.974, 2128, 2028, 2556
6613, 16341.7, -1, 79, -0.00406662, 0.0510683, 1.99013, -0.140618, 0.0556032, 0.0605961, 0.162902, 0.979, 2052, 2068, 2604
6614, 16386.3, -1, 79, 0.0039619, 0.0492532, 1.9898, -0.163867, 0.0458675, 0.0791817, 0.187686, 0.983, 1980, 2004, 2500
6615, 16432.1, -1, 79, 0.00980875, 0.0480664, 1.98978, -0.141909, 0.042076, 0.0847202, 0.170546, 0.986, 2036, 2088, 2588
6616, 16480.1, -1, 79, 0.0140499, 0.0475079, 1.98922, -0.101204, 0.0430355, 0.109696, 0.15533, 0.993, 1972, 2040, 2520
6617, 16521.4, -1, 79, 0.0160221, 0.0456229, 1.98929, -0.0919649, 0.0486437, 0.11896, 0.158036, 0.997, 2064, 2108, 2568
6618, 16563.4, -1, 79, 0.0189543, 0.040736, 1.98879, -0.0817134, 0.0325027, 0.116256, 0.14577, 1.002, 2056, 1996, 2548
6619, 16604.9, -1, 79, 0.020368, 0.036041, 1.98854, -0.0636532, 0.0444664, 0.122179, 0.144764, 1.008, 1988, 2028, 2476
6620, 16637.8, -1, 79, 0.0203505, 0.0334929, 1.98824, -0.0569413, 0.0278258, 0.12465, 0.139836, 1.012, 2120, 2064, 2524
6621, 16666.6, -1, 79, 0.0204553, 0.0314857, 1.98847, -0.0443719, 0.0427112, 0.123666, 0.138153, 1.016, 2096, 2020, 2568
6622, 16702.7, -1, 79, 0.020176, 0.0287456, 1.98819, -0.0466679, 0.0268307, 0.122939, 0.134208, 1.02, 2108, 2016, 2552
6623, 16728.5, -1, 79, 0.0203156, 0.0270875, 1.98833, -0.0408871, 0.0202021, 0.120069, 0.128439, 1.023, 2008, 2052, 2504
6624, 16762.2, -1, 79, 0.0205425, 0.0249233, 1.9883, -0.0432787, 0.0165202, 0.116567, 0.125435, 1.028, 1952, 2032, 2548
6625, 16788.9, -1, 79, 0.0204553, 0.024103, 1.98823, -0.0406832, 0.00968301, 0.114711, 0.122097, 1.03, 2036, 2012, 2504
6626, 16819.6, -1, 79, 0.0199491, 0.0233351, 1.98851, -0.0299276, 0.016328, 0.108385, 0.11362, 1.033, 1924, 2048, 2548
6627, 16850.8, -1, 79, 0.0189019, 0.022602, 1.98851, -0.0427507, 0.00309714, 0.100156, 0.108943, 1.036, 2068, 2008, 2488
6628, 16881.2, -1, 79, 0.0185878, 0.0223228, 1.98879, -0.0382864, 0.0058496, 0.106063, 0.112913, 1.039, 2132, 2028, 2496
6629, 16911.3, -1, 79, 0.0176627, 0.0217643, 1.98912, -0.0356759, -0.00652021, 0.102006, 0.108262, 1.043, 2124, 2040, 2512
6630, 16941.9, -1, 79, 0.0155858, 0.0208218, 1.98938, -0.0341262, -0.0114982, 0.0911824, 0.0980359, 1.045, 2096, 2044, 2520
6631, 16972.6, -1, 79, 0.0134216, 0.0197397, 1.98938, -0.0231099, 0.0144388, 0.0884737, 0.0925751, 1.047, 2036, 2024, 2488
6632, 17003.6, -1, 79, 0.0111352, 0.0192684, 1.98959, -0.0182744, -0.00198324, 0.0863318, 0.088267, 1.051, 2020, 2036, 2500
6633, 17034.9, -1, 79, 0.0103149, 0.0196, 1.98987, -0.0226163, -0.00918439, 0.0709188, 0.0750022, 1.05, 2060, 2040, 2528
6634, 17065.1, -1, 79, 0.00909317, 0.0167901, 1.99064, -0.0101569, 0.0180255, 0.0702343, 0.0732184, 1.053, 2008, 2056, 2528
6635, 17095.6, -1, 79, 0.00750492, 0.0118682, 1.99009, -0.0134684, 0.0103995, 0.0661857, 0.0683381, 1.054, 2020, 2024, 2532
6636, 17125.2, -1, 79, 0.00621337, 0.00574213, 1.99039, -0.0172092, 0.00555483, 0.0602802, 0.0629342, 1.055, 2104, 2012, 2532
6637, 17156.4, -1, 79, 0.00486947, -0.000715585, 1.99027, -0.0172787, -0.012294, 0.0539754, 0.0579917, 1.056, 2116, 2008, 2532
6638, 17186.5, -1, 79, 0.00394444, -0.00347321, 1.99008, -0.0169397, -0.0178263, 0.0547265, 0.0599976, 1.057, 2072, 2028, 2544
6639, 17218, -1, 79, 0.00143117, -0.00673697, 1.9903, -0.0250605, -0.0253576, 0.0437831, 0.0564624, 1.056, 2068, 2044, 2544
6640, 17248.5, -1, 79, -0.00106465, -0.00792379, 1.99022, -0.0378608, -0.034282, 0.040856, 0.0654057, 1.057, 2132, 2012, 2524
6641, 17278.5, -1, 79, -0.00434587, -0.00780162, 1.99029, -0.0492462, -0.0377524, 0.0393236, 0.0734627, 1.057, 2132, 2020, 2528
